eïŋ―Jïŋ―ïŋ―Ņđesp32: SPI Mode   ïŋ―ets Jul 29 2019 12:21:46

rst:0x1 (POWERON_RESET),boot:0x13 (SPI_FAST_FLASH_BOOT)
configsip: 0, SPIWP:0xee
clk_drv:0x00,q_drv:0x00,d_drv:0x00,cs0_drv:0x00,hd_drv:0x00,wp_drv:0x00
mode:DIO, clock div:2
load:0x3fff0030,len:6276
load:0x40078000,len:15748
load:0x40080400,len:4
ho 8 tail 4 room 4
load:0x40080404,len:3860
entry 0x4008063c
[0;32mI (31) boot: ESP-IDF v5.4.1-dirty 2nd stage bootloader[0m
[0;32mI (31) boot: compile time Jan  8 2026 14:39:13[0m
[0;32mI (31) boot: Multicore bootloader[0m
[0;32mI (33) boot: chip revision: v3.1[0m
[0;32mI (36) boot.esp32: SPI Speed      : 40MHz[0m
[0;32mI (40) boot.esp32: SPI Mode       : DIO[0m
[0;32mI (43) boot.esp32: SPI Flash Size : 2MB[0m
[0;32mI (47) boot: Enabling RNG early entropy source...[0m
[0;32mI (51) boot: Partition Table:[0m
[0;32mI (54) boot: ## Label            Usage          Type ST Offset   Length[0m
[0;32mI (60) boot:  0 nvs              WiFi data        01 02 00009000 00006000[0m
[0;32mI (67) boot:  1 phy_init         RF data          01 01 0000f000 00001000[0m
[0;32mI (73) boot:  2 factory          factory app      00 00 00010000 00100000[0m
[0;32mI (80) boot: End of partition table[0m
[0;32mI (83) esp_image: segment 0: paddr=00010020 vaddr=3f400020 size=0aa34h ( 43572) map[0m
[0;32mI (105) esp_image: segment 1: paddr=0001aa5c vaddr=3ff80000 size=0001ch (    28) load[0m
[0;32mI (106) esp_image: segment 2: paddr=0001aa80 vaddr=3ffb0000 size=02314h (  8980) load[0m
[0;32mI (113) esp_image: segment 3: paddr=0001cd9c vaddr=40080000 size=0327ch ( 12924) load[0m
[0;32mI (122) esp_image: segment 4: paddr=00020020 vaddr=400d0020 size=15990h ( 88464) map[0m
[0;32mI (155) esp_image: segment 5: paddr=000359b8 vaddr=4008327c size=0a994h ( 43412) load[0m
[0;32mI (178) boot: Loaded app from partition at offset 0x10000[0m
[0;32mI (178) boot: Disabling RNG early entropy source...[0m
[0;32mI (189) cpu_start: Multicore app[0m
[0;32mI (197) cpu_start: Pro cpu start user code[0m
[0;32mI (197) cpu_start: cpu freq: 160000000 Hz[0m
[0;32mI (197) app_init: Application information:[0m
[0;32mI (197) app_init: Project name:     app-template[0m
[0;32mI (201) app_init: App version:      1[0m
[0;32mI (205) app_init: Compile time:     Jan  8 2026 14:38:04[0m
[0;32mI (210) app_init: ELF file SHA256:  3c52693d1...[0m
[0;32mI (214) app_init: ESP-IDF:          v5.4.1-dirty[0m
[0;32mI (219) efuse_init: Min chip rev:     v0.0[0m
[0;32mI (222) efuse_init: Max chip rev:     v3.99 [0m
[0;32mI (226) efuse_init: Chip rev:         v3.1[0m
[0;32mI (231) heap_init: Initializing. RAM available for dynamic allocation:[0m
[0;32mI (237) heap_init: At 3FFAE6E0 len 00001920 (6 KiB): DRAM[0m
[0;32mI (242) heap_init: At 3FFB2CD8 len 0002D328 (180 KiB): DRAM[0m
[0;32mI (247) heap_init: At 3FFE0440 len 00003AE0 (14 KiB): D/IRAM[0m
[0;32mI (252) heap_init: At 3FFE4350 len 0001BCB0 (111 KiB): D/IRAM[0m
[0;32mI (258) heap_init: At 4008DC10 len 000123F0 (72 KiB): IRAM[0m
[0;32mI (264) spi_flash: detected chip: generic[0m
[0;32mI (267) spi_flash: flash io: dio[0m
[0;33mW (270) spi_flash: Detected size(4096k) larger than the size in the binary image header(2048k). Using the size in the binary image header.[0m
[0;32mI (282) main_task: Started on CPU0[0m
[0;32mI (292) main_task: Calling app_main()[0m
[0;32mI (292) UART_RX: UART initialized[0m
$GPRMC,111537.00,A,1907.39472,N,07250.19154,E,0.098,,080126,,,A*70
$GPVTG,,T,,M,0.098,N,0.181,K,A*2A
$GPGGA,111537.00,1907.39472,N,07250.19154,E,1,05,7.14,26.1,M,-65.6,M,,*4A
$GPGSA,A,3,22,19,06,17,14,,,,,,,,9.96,7.14,6.94*00
$GPGSV,4,1,14,05,02,192,,06,70,038,31,11,61,210,,12,15,318,*75
$GPGSV,4,2,14,13,12,210,,14,32,103,31,15,01,234,,17,24,041,34*7E
$GPGSV,4,3,14,19,39,020,33,20,24,170,,21,17,168,14,22,44,084,35*7C
$GPGSV,4,4,14,24,39,292,,30,06,155,*7D
$GPGLL,1907.39472,N,07250.19154,E,111537.00,A,A*65
$GPRMC,111538.00,A,1907.39470,N,07250.19149,E,0.109,,080126,,,A*78
$GPVTG,,T,,M,0.109,N,0.202,K,A*2B
$GPGGA,111538.00,1907.39470,N,07250.19149,E,1,05,7.14,26.0,M,-65.6,M,,*4A
$GPGSA,A,3,22,19,06,17,14,,,,,,,,9.96,7.14,6.94*00
$GPGSV,4,1,14,05,02,192,,06,70,038,31,11,61,210,,12,15,318,*75
$GPGSV,4,2,14,13,12,210,,14,32,103,31,15,01,234,,17,24,041,34*7E
$GPGSV,4,3,14,19,39,020,33,20,24,170,,21,17,168,15,22,44,084,36*7E
$GPGSV,4,4,14,24,39,292,,30,06,155,*7D
$GPGLL,1907.39470,N,07250.19149,E,111538.00,A,A*64
$GPRMC,111539.00,A,1907.39467,N,07250.19141,E,0.202,,080126,,,A*7F
$GPVTG,,T,,M,0.202,N,0.374,K,A*23
$GPGGA,111539.00,1907.39467,N,07250.19141,E,1,05,7.14,25.8,M,-65.6,M,,*4E
$GPGSA,A,3,22,19,06,17,14,,,,,,,,9.96,7.14,6.94*00
$GPGSV,4,1,14,05,02,192,,06,70,038,35,11,61,210,,12,15,318,*71
$GPGSV,4,2,14,13,12,210,,14,32,103,34,15,01,234,,17,24,041,38*77
$GPGSV,4,3,14,19,39,020,35,20,24,170,,21,17,168,15,22,44,084,38*76
$GPGSV,4,4,14,24,39,292,,30,06,155,*7D
$GPGLL,1907.39467,N,07250.19141,E,111539.00,A,A*6B
$GPRMC,111540.00,A,1907.39464,N,07250.19133,E,0.086,,080126,,,A*79
$GPVTG,,T,,M,0.086,N,0.159,K,A*20
$GPGGA,111540.00,1907.39464,N,07250.19133,E,1,05,7.14,25.7,M,-65.6,M,,*49
$GPGSA,A,3,22,19,06,17,14,,,,,,,,9.96,7.14,6.94*00
$GPGSV,4,1,14,05,02,192,,06,70,038,33,11,62,210,,12,15,318,*74
$GPGSV,4,2,14,13,12,210,,14,32,103,32,15,01,234,,17,24,041,35*7C
$GPGSV,4,3,14,19,39,020,34,20,24,170,,21,17,168,13,22,44,084,37*7E
$GPGSV,4,4,14,24,39,292,,30,06,155,*7D
$GPGLL,1907.39464,N,07250.19133,E,111540.00,A,A*63
$GPRMC,111541.00,A,1907.39461,N,07250.19128,E,0.095,,080126,,,A*75
$GPVTG,,T,,M,0.095,N,0.176,K,A*2F
$GPGGA,111541.00,1907.39461,N,07250.19128,E,1,05,7.14,25.6,M,-65.6,M,,*46
$GPGSA,A,3,22,19,06,17,14,,,,,,,,9.96,7.14,6.94*00
$GPGSV,4,1,14,05,02,192,,06,70,038,34,11,62,210,,12,15,318,*73
$GPGSV,4,2,14,13,12,210,,14,32,103,33,15,01,234,,17,24,041,36*7E
$GPGSV,4,3,14,19,39,020,34,20,24,170,,21,17,168,14,22,44,084,38*76
$GPGSV,4,4,14,24,39,292,,30,06,155,*7D
$GPGLL,1907.39461,N,07250.19128,E,111541.00,A,A*6D
$GPRMC,111542.00,A,1907.39459,N,07250.19123,E,0.224,,080126,,,A*7E
$GPVTG,,T,,M,0.224,N,0.416,K,A*24
$GPGGA,111542.00,1907.39459,N,07250.19123,E,1,05,7.14,25.4,M,-65.6,M,,*47
$GPGSA,A,3,22,19,06,17,14,,,,,,,,9.96,7.14,6.94*00
$GPGSV,4,1,14,05,02,192,07,06,70,038,34,11,62,210,,12,15,318,*74
$GPGSV,4,2,14,13,12,210,,14,32,103,33,15,01,234,,17,24,041,36*7E
$GPGSV,4,3,14,19,39,020,34,20,24,170,,21,17,168,13,22,44,084,38*71
$GPGSV,4,4,14,24,39,292,,30,06,155,*7D
$GPGLL,1907.39459,N,07250.19123,E,111542.00,A,A*6E
$GPRMC,111543.00,A,1907.39458,N,07250.19120,E,0.207,,080126,,,A*7C
$GPVTG,,T,,M,0.207,N,0.383,K,A*2E
$GPGGA,111543.00,1907.39458,N,07250.19120,E,1,05,7.14,25.4,M,-65.6,M,,*44
$GPGSA,A,3,22,19,06,17,14,,,,,,,,9.95,7.14,6.94*03
$GPGSV,4,1,14,05,02,192,08,06,70,038,34,11,62,210,,12,15,318,*7B
$GPGSV,4,2,14,13,12,210,,14,32,103,33,15,01,234,,17,24,041,36*7E
$GPGSV,4,3,14,19,39,020,34,20,24,170,,21,17,168,13,22,44,084,38*71
$GPGSV,4,4,14,24,39,292,,30,06,155,*7D
$GPGLL,1907.39458,N,07250.19120,E,111543.00,A,A*6D
$GPRMC,111544.00,A,1907.39456,N,07250.19116,E,0.063,,080126,,,A*70
$GPVTG,,T,,M,0.063,N,0.117,K,A*21
$GPGGA,111544.00,1907.39456,N,07250.19116,E,1,05,7.14,25.3,M,-65.6,M,,*4F
$GPGSA,A,3,22,19,06,17,14,,,,,,,,9.95,7.14,6.94*03
$GPGSV,4,1,14,05,02,192,09,06,70,038,34,11,62,210,,12,15,318,*7A
$GPGSV,4,2,14,13,12,210,,14,32,103,33,15,01,234,,17,24,041,36*7E
$GPGSV,4,3,14,19,39,020,34,20,24,170,,21,17,168,13,22,44,084,37*7E
$GPGSV,4,4,14,24,39,292,,30,06,155,*7D
$GPGLL,1907.39456,N,07250.19116,E,111544.00,A,A*61
$GPRMC,111545.00,A,1907.39454,N,07250.19110,E,0.008,,080126,,,A*78
$GPVTG,,T,,M,0.008,N,0.015,K,A*2F
$GPGGA,111545.00,1907.39454,N,07250.19110,E,1,05,7.14,25.2,M,-65.6,M,,*4B
$GPGSA,A,3,22,19,06,17,14,,,,,,,,9.95,7.14,6.94*03
$GPGSV,4,1,14,05,02,192,09,06,70,038,33,11,62,210,,12,15,318,*7D
$GPGSV,4,2,14,13,12,210,,14,32,103,32,15,01,234,,17,24,041,35*7C
$GPGSV,4,3,14,19,39,020,34,20,24,170,,21,17,168,13,22,44,084,35*7C
$GPGSV,4,4,14,24,39,292,,30,06,155,*7D
$GPGLL,1907.39454,N,07250.19110,E,111545.00,A,A*64
$GPRMC,111546.00,A,1907.39452,N,07250.19105,E,0.022,,080126,,,A*71
$GPVTG,,T,,M,0.022,N,0.041,K,A*26
$GPGGA,111546.00,1907.39452,N,07250.19105,E,1,05,7.14,25.1,M,-65.6,M,,*49
$GPGSA,A,3,22,19,06,17,14,,,,,,,,9.95,7.14,6.93*04
$GPGSV,4,1,14,05,02,192,10,06,70,038,33,11,62,210,,12,15,318,*75
$GPGSV,4,2,14,13,12,210,,14,32,103,32,15,01,234,,17,24,042,35*7F
$GPGSV,4,3,14,19,39,020,33,20,24,170,,21,17,168,13,22,44,084,36*78
$GPGSV,4,4,14,24,39,292,,30,06,155,*7D
$GPGLL,1907.39452,N,07250.19105,E,111546.00,A,A*65
$GPRMC,111547.00,A,1907.39450,N,07250.19101,E,0.066,,080126,,,A*76
$GPVTG,,T,,M,0.066,N,0.122,K,A*22
$GPGGA,111547.00,1907.39450,N,07250.19101,E,1,05,7.14,25.0,M,-65.6,M,,*4F
$GPGSA,A,3,22,19,06,17,14,,,,,,,,9.95,7.14,6.93*04
$GPGSV,4,1,14,05,02,192,11,06,70,038,33,11,62,210,,12,15,318,*74
$GPGSV,4,2,14,13,12,210,,14,32,103,31,15,01,234,,17,24,042,34*7D
$GPGSV,4,3,14,19,39,020,33,20,24,170,,21,17,168,13,22,44,084,36*78
$GPGSV,4,4,14,24,39,292,,30,06,155,*7D
$GPGLL,1907.39450,N,07250.19101,E,111547.00,A,A*62
$GPRMC,111548.00,A,1907.39447,N,07250.19095,E,0.053,,080126,,,A*75
$GPVTG,,T,,M,0.053,N,0.097,K,A*2B
$GPGGA,111548.00,1907.39447,N,07250.19095,E,1,05,7.14,24.9,M,-65.6,M,,*42
$GPGSA,A,3,22,19,06,17,14,,,,,,,,9.95,7.14,6.93*04
$GPGSV,4,1,14,05,02,192,12,06,70,038,33,11,62,210,,12,15,318,*77
$GPGSV,4,2,14,13,12,210,,14,32,103,32,15,01,234,,17,24,042,35*7F
$GPGSV,4,3,14,19,39,020,33,20,24,170,,21,17,168,12,22,44,084,36*79
$GPGSV,4,4,14,24,39,292,,30,06,155,*7D
$GPGLL,1907.39447,N,07250.19095,E,111548.00,A,A*67
$GPRMC,111549.00,A,1907.39442,N,07250.19087,E,0.046,,080126,,,A*76
$GPVTG,,T,,M,0.046,N,0.086,K,A*2F
$GPGGA,111549.00,1907.39442,N,07250.19087,E,1,05,7.14,24.8,M,-65.6,M,,*44
$GPGSA,A,3,22,19,06,17,14,,,,,,,,9.95,7.14,6.93*04
$GPGSV,4,1,14,05,02,192,,06,70,038,33,11,62,210,,12,15,318,*74
$GPGSV,4,2,14,13,12,210,,14,32,103,32,15,01,234,,17,24,042,35*7F
$GPGSV,4,3,14,19,39,020,33,20,25,170,,21,17,168,11,22,44,084,37*7A
$GPGSV,4,4,14,24,39,292,,30,06,155,*7D
$GPGLL,1907.39442,N,07250.19087,E,111549.00,A,A*60
$GPRMC,111550.00,A,1907.39437,N,07250.19078,E,0.045,,080126,,,A*7F
$GPVTG,,T,,M,0.045,N,0.084,K,A*2E
$GPGGA,111550.00,1907.39437,N,07250.19078,E,1,05,7.14,24.6,M,-65.6,M,,*40
$GPGSA,A,3,22,19,06,17,14,,,,,,,,9.95,7.14,6.93*04
$GPGSV,4,1,14,05,02,192,,06,70,038,33,11,62,210,,12,15,318,*74
$GPGSV,4,2,14,13,12,210,,14,32,103,32,15,01,234,,17,24,042,35*7F
$GPGSV,4,3,14,19,39,020,33,20,25,170,,21,17,168,11,22,44,084,37*7A
$GPGSV,4,4,14,24,39,292,,30,06,155,*7D
$GPGLL,1907.39437,N,07250.19078,E,111550.00,A,A*6A
$GPRMC,111551.00,A,1907.39437,N,07250.19076,E,0.050,,080126,,,A*74
$GPVTG,,T,,M,0.050,N,0.092,K,A*2D
$GPGGA,111551.00,1907.39437,N,07250.19076,E,1,05,7.14,24.5,M,-65.6,M,,*4C
$GPGSA,A,3,22,19,06,17,14,,,,,,,,9.95,7.14,6.93*04
$GPGSV,4,1,14,05,02,192,,06,70,038,33,11,62,210,,12,15,318,*74
$GPGSV,4,2,14,13,12,210,,14,32,103,32,15,01,234,,17,24,042,36*7C
$GPGSV,4,3,14,19,39,020,33,20,25,170,,21,17,168,10,22,44,084,37*7B
$GPGSV,4,4,14,24,39,292,,30,06,155,*7D
$GPGLL,1907.39437,N,07250.19076,E,111551.00,A,A*65
$GPRMC,111552.00,A,1907.39433,N,07250.19068,E,0.066,,080126,,,A*79
$GPVTG,,T,,M,0.066,N,0.122,K,A*22
$GPGGA,111552.00,1907.39433,N,07250.19068,E,1,05,7.14,24.4,M,-65.6,M,,*45
$GPGSA,A,3,22,19,06,17,14,,,,,,,,9.95,7.14,6.93*04
$GPGSV,4,1,14,05,02,192,,06,70,038,33,11,62,210,,12,15,318,*74
$GPGSV,4,2,14,13,12,210,,14,32,103,32,15,01,234,,17,24,042,34*7E
$GPGSV,4,3,14,19,39,020,33,20,25,170,,21,17,168,09,22,44,084,36*72
$GPGSV,4,4,14,24,39,292,,30,06,155,*7D
$GPGLL,1907.39433,N,07250.19068,E,111552.00,A,A*6D
$GPRMC,111553.00,A,1907.39429,N,07250.19062,E,0.022,,080126,,,A*79
$GPVTG,,T,,M,0.022,N,0.041,K,A*26
$GPGGA,111553.00,1907.39429,N,07250.19062,E,1,05,7.14,24.2,M,-65.6,M,,*43
$GPGSA,A,3,22,19,06,17,14,,,,,,,,9.95,7.14,6.93*04
$GPGSV,4,1,14,05,02,192,,06,70,038,33,11,62,210,,12,15,318,*74
$GPGSV,4,2,14,13,12,210,,14,32,103,32,15,01,234,,17,24,042,35*7F
$GPGSV,4,3,14,19,39,020,33,20,25,170,,21,17,168,10,22,44,084,37*7B
$GPGSV,4,4,14,24,39,291,,30,06,155,*7E
$GPGLL,1907.39429,N,07250.19062,E,111553.00,A,A*6D
$GPRMC,111554.00,A,1907.39425,N,07250.19055,E,0.073,,080126,,,A*72
$GPVTG,,T,,M,0.073,N,0.134,K,A*21
$GPGGA,111554.00,1907.39425,N,07250.19055,E,1,05,7.14,24.0,M,-65.6,M,,*4E
$GPGSA,A,3,22,19,06,17,14,,,,,,,,9.95,7.14,6.93*04
$GPGSV,4,1,14,05,02,192,,06,70,038,34,11,62,210,,12,15,318,*73
$GPGSV,4,2,14,13,12,210,,14,32,103,33,15,01,234,,17,24,042,35*7E
$GPGSV,4,3,14,19,39,020,34,20,25,170,,21,17,168,13,22,44,084,37*7F
$GPGSV,4,4,14,24,39,291,,30,06,155,*7E
$GPGLL,1907.39425,N,07250.19055,E,111554.00,A,A*62
$GPRMC,111555.00,A,1907.39423,N,07250.19052,E,0.147,,080126,,,A*74
$GPVTG,,T,,M,0.147,N,0.273,K,A*27
$GPGGA,111555.00,1907.39423,N,07250.19052,E,1,05,7.14,23.9,M,-65.6,M,,*40
$GPGSA,A,3,22,19,06,17,14,,,,,,,,9.95,7.14,6.93*04
$GPGSV,4,1,14,05,02,192,,06,70,038,34,11,62,210,,12,15,318,*73
$GPGSV,4,2,14,13,12,210,,14,32,103,32,15,01,234,,17,24,042,35*7F
$GPGSV,4,3,14,19,39,020,34,20,25,170,,21,17,168,14,22,44,084,37*78
$GPGSV,4,4,14,24,39,291,,30,06,155,*7E
$GPGLL,1907.39423,N,07250.19052,E,111555.00,A,A*62
$GPRMC,111556.00,A,1907.39422,N,07250.19049,E,0.297,,080126,,,A*72
$GPVTG,,T,,M,0.297,N,0.550,K,A*2F
$GPGGA,111556.00,1907.39422,N,07250.19049,E,1,05,7.14,23.8,M,-65.6,M,,*49
$GPGSA,A,3,22,19,06,17,14,,,,,,,,9.95,7.14,6.93*04
$GPGSV,4,1,14,05,02,192,,06,70,038,33,11,62,210,,12,15,318,*74
$GPGSV,4,2,14,13,12,210,,14,32,103,31,15,01,234,,17,24,042,34*7D
$GPGSV,4,3,14,19,39,020,33,20,25,170,,21,17,168,14,22,44,084,35*7D
$GPGSV,4,4,14,24,39,291,,30,06,155,*7E
$GPGLL,1907.39422,N,07250.19049,E,111556.00,A,A*6A
$GPRMC,111557.00,A,1907.39422,N,07250.19047,E,0.190,,080126,,,A*79
$GPVTG,,T,,M,0.190,N,0.351,K,A*2C
$GPGGA,111557.00,1907.39422,N,07250.19047,E,1,05,7.14,23.8,M,-65.6,M,,*46
$GPGSA,A,3,22,19,06,17,14,,,,,,,,9.95,7.14,6.93*04
$GPGSV,4,1,14,05,02,192,,06,70,038,33,11,62,210,,12,15,318,*74
$GPGSV,4,2,14,13,12,210,,14,32,103,31,15,01,234,,17,24,042,34*7D
$GPGSV,4,3,14,19,39,020,33,20,25,170,,21,17,168,15,22,44,084,37*7E
$GPGSV,4,4,14,24,39,291,,30,06,155,*7E
$GPGLL,1907.39422,N,07250.19047,E,111557.00,A,A*65
$GPRMC,111558.00,A,1907.39419,N,07250.19042,E,0.131,,080126,,,A*70
$GPVTG,,T,,M,0.131,N,0.243,K,A*25
$GPGGA,111558.00,1907.39419,N,07250.19042,E,1,05,7.14,23.7,M,-65.6,M,,*4B
$GPGSA,A,3,22,19,06,17,14,,,,,,,,9.95,7.14,6.92*05
$GPGSV,4,1,14,05,02,192,,06,70,038,33,11,62,210,,12,15,318,*74
$GPGSV,4,2,14,13,12,210,,14,32,103,31,15,01,234,,17,24,042,35*7C
$GPGSV,4,3,14,19,39,020,34,20,25,170,,21,17,168,15,22,44,084,36*78
$GPGSV,4,4,14,24,39,291,,30,06,155,*7E
$GPGLL,1907.39419,N,07250.19042,E,111558.00,A,A*67
$GPRMC,111559.00,A,1907.39418,N,07250.19039,E,0.156,,080126,,,A*7D
$GPVTG,,T,,M,0.156,N,0.288,K,A*23
$GPGGA,111559.00,1907.39418,N,07250.19039,E,1,05,7.14,23.6,M,-65.6,M,,*46
$GPGSA,A,3,22,19,06,17,14,,,,,,,,9.95,7.14,6.92*05
$GPGSV,4,1,14,05,02,192,,06,70,038,33,11,62,210,,12,15,318,*74
$GPGSV,4,2,14,13,12,210,,14,32,103,31,15,01,234,,17,24,042,34*7D
$GPGSV,4,3,14,19,39,020,33,20,25,170,,21,17,168,13,22,44,084,36*79
$GPGSV,4,4,14,24,39,291,,30,05,155,*7D
$GPGLL,1907.39418,N,07250.19039,E,111559.00,A,A*6B
$GPRMC,111600.00,A,1907.39418,N,07250.19038,E,0.183,,080126,,,A*7B
$GPVTG,,T,,M,0.183,N,0.339,K,A*20
$GPGGA,111600.00,1907.39418,N,07250.19038,E,1,05,7.14,23.6,M,-65.6,M,,*48
$GPGSA,A,3,22,19,06,17,14,,,,,,,,9.95,7.14,6.92*05
$GPGSV,4,1,14,05,02,192,,06,70,038,33,11,62,210,,12,15,318,*74
$GPGSV,4,2,14,13,12,210,,14,32,103,32,15,01,234,,17,24,042,35*7F
$GPGSV,4,3,14,19,39,020,33,20,25,170,,21,17,168,10,22,44,084,37*7B
$GPGSV,4,4,14,24,39,291,,30,05,155,*7D
$GPGLL,1907.39418,N,07250.19038,E,111600.00,A,A*65
$GPRMC,111601.00,A,1907.39418,N,07250.19037,E,0.134,,080126,,,A*79
$GPVTG,,T,,M,0.134,N,0.248,K,A*2B
$GPGGA,111601.00,1907.39418,N,07250.19037,E,1,05,7.14,23.5,M,-65.6,M,,*45
$GPGSA,A,3,22,19,06,17,14,,,,,,,,9.95,7.14,6.92*05
$GPGSV,4,1,14,05,02,192,,06,70,038,34,11,62,210,,12,15,318,*73
$GPGSV,4,2,14,13,12,210,,14,32,103,32,15,01,234,,17,24,042,37*7D
$GPGSV,4,3,14,19,39,020,34,20,25,170,,21,17,168,09,22,44,084,39*7A
$GPGSV,4,4,14,24,39,291,,30,05,155,*7D
$GPGLL,1907.39418,N,07250.19037,E,111601.00,A,A*6B
$GPRMC,111602.00,A,1907.39419,N,07250.19034,E,0.037,,080126,,,A*7A
$GPVTG,,T,,M,0.037,N,0.069,K,A*28
$GPGGA,111602.00,1907.39419,N,07250.19034,E,1,05,7.14,23.5,M,-65.6,M,,*44
$GPGSA,A,3,22,19,06,17,14,,,,,,,,9.95,7.14,6.92*05
$GPGSV,4,1,14,05,02,192,,06,70,038,34,11,62,210,,12,15,318,*73
$GPGSV,4,2,14,13,12,210,,14,32,103,32,15,01,234,,17,24,042,35*7F
$GPGSV,4,3,14,19,39,020,34,20,25,170,,21,17,168,08,22,44,084,37*75
$GPGSV,4,4,14,24,39,291,,30,05,155,*7D
$GPGLL,1907.39419,N,07250.19034,E,111602.00,A,A*6A
$GPRMC,111603.00,A,1907.39419,N,07250.19031,E,0.045,,080126,,,A*7B
$GPVTG,,T,,M,0.045,N,0.084,K,A*2E
$GPGGA,111603.00,1907.39419,N,07250.19031,E,1,05,7.14,23.4,M,-65.6,M,,*41
$GPGSA,A,3,22,19,06,17,14,,,,,,,,9.95,7.14,6.92*05
$GPGSV,4,1,14,05,02,192,,06,70,038,34,11,62,210,,12,15,318,*73
$GPGSV,4,2,14,13,12,210,,14,32,103,32,15,01,234,,17,24,042,35*7F
$GPGSV,4,3,14,19,39,020,34,20,25,170,,21,17,168,09,22,44,084,37*74
$GPGSV,4,4,14,24,39,291,,30,05,155,*7D
$GPGLL,1907.39419,N,07250.19031,E,111603.00,A,A*6E
$GPRMC,111604.00,A,1907.39420,N,07250.19031,E,0.027,,080126,,,A*72
$GPVTG,,T,,M,0.027,N,0.050,K,A*23
$GPGGA,111604.00,1907.39420,N,07250.19031,E,1,05,7.14,23.3,M,-65.6,M,,*4B
$GPGSA,A,3,22,19,06,17,14,,,,,,,,9.94,7.14,6.92*04
$GPGSV,4,1,14,05,02,192,,06,70,038,34,11,62,210,,12,15,318,*73
$GPGSV,4,2,14,13,12,210,,14,32,103,33,15,01,234,,17,24,042,35*7E
$GPGSV,4,3,14,19,39,020,34,20,25,170,,21,17,168,10,22,44,084,39*72
$GPGSV,4,4,14,24,39,291,,30,05,155,*7D
$GPGLL,1907.39420,N,07250.19031,E,111604.00,A,A*63
$GPRMC,111605.00,A,1907.39421,N,07250.19029,E,0.108,,080126,,,A*77
$GPVTG,,T,,M,0.108,N,0.199,K,A*2B
$GPGGA,111605.00,1907.39421,N,07250.19029,E,1,05,7.14,23.3,M,-65.6,M,,*42
$GPGSA,A,3,22,19,06,17,14,,,,,,,,9.94,7.14,6.92*04
$GPGSV,4,1,14,05,02,192,,06,70,038,33,11,62,210,,12,15,318,*74
$GPGSV,4,2,14,13,12,210,,14,32,103,32,15,01,234,,17,24,042,35*7F
$GPGSV,4,3,14,19,39,020,34,20,25,170,,21,17,168,08,22,44,084,37*75
$GPGSV,4,4,14,24,39,291,,30,05,155,*7D
$GPGLL,1907.39421,N,07250.19029,E,111605.00,A,A*6A
$GPRMC,111606.00,A,1907.39420,N,07250.19025,E,0.006,,080126,,,A*76
$GPVTG,,T,,M,0.006,N,0.012,K,A*26
$GPGGA,111606.00,1907.39420,N,07250.19025,E,1,05,7.14,23.2,M,-65.6,M,,*4D
$GPGSA,A,3,22,19,06,17,14,,,,,,,,9.94,7.14,6.92*04
$GPGSV,4,1,14,05,02,192,,06,70,038,33,11,62,210,,12,15,318,*74
$GPGSV,4,2,14,13,12,210,,14,32,103,33,15,01,234,,17,24,042,35*7E
$GPGSV,4,3,14,19,39,020,34,20,25,170,,21,17,168,10,22,44,084,37*7C
$GPGSV,4,4,14,24,39,291,,30,05,155,*7D
$GPGLL,1907.39420,N,07250.19025,E,111606.00,A,A*64
$GPRMC,111607.00,A,1907.39422,N,07250.19026,E,0.018,,080126,,,A*79
$GPVTG,,T,,M,0.018,N,0.034,K,A*2D
$GPGGA,111607.00,1907.39422,N,07250.19026,E,1,05,7.14,23.1,M,-65.6,M,,*4E
$GPGSA,A,3,22,19,06,17,14,,,,,,,,9.94,7.14,6.92*04
$GPGSV,4,1,14,05,02,192,,06,70,038,34,11,62,210,,12,15,318,*73
$GPGSV,4,2,14,13,12,210,,14,32,103,33,15,01,234,,17,24,042,35*7E
$GPGSV,4,3,14,19,39,020,34,20,25,170,,21,17,168,10,22,44,084,38*73
$GPGSV,4,4,14,24,39,291,,30,05,155,*7D
$GPGLL,1907.39422,N,07250.19026,E,111607.00,A,A*64
$GPRMC,111608.00,A,1907.39421,N,07250.19023,E,0.058,,080126,,,A*74
$GPVTG,,T,,M,0.058,N,0.108,K,A*27
$GPGGA,111608.00,1907.39421,N,07250.19023,E,1,05,7.14,23.0,M,-65.6,M,,*46
$GPGSA,A,3,22,19,06,17,14,,,,,,,,9.94,7.14,6.92*04
$GPGSV,4,1,14,05,02,192,,06,70,038,33,11,62,210,,12,15,318,*74
$GPGSV,4,2,14,13,12,210,,14,32,103,32,15,01,234,,17,24,042,35*7F
$GPGSV,4,3,14,19,39,020,33,20,25,170,,21,17,168,10,22,44,084,35*79
$GPGSV,4,4,14,24,39,291,,30,05,155,*7D
$GPGLL,1907.39421,N,07250.19023,E,111608.00,A,A*6D
$GPRMC,111609.00,A,1907.39419,N,07250.19019,E,0.128,,080126,,,A*71
$GPVTG,,T,,M,0.128,N,0.238,K,A*21
$GPGGA,111609.00,1907.39419,N,07250.19019,E,1,05,7.14,22.9,M,-65.6,M,,*4D
$GPGSA,A,3,22,19,06,17,14,,,,,,,,9.94,7.14,6.92*04
$GPGSV,4,1,14,05,02,192,,06,70,038,33,11,62,210,,12,15,318,*74
$GPGSV,4,2,14,13,12,210,,14,32,103,32,15,01,234,,17,24,042,35*7F
$GPGSV,4,3,14,19,39,020,33,20,25,170,,21,17,168,11,22,44,084,36*7B
$GPGSV,4,4,14,24,39,291,,30,05,155,*7D
$GPGLL,1907.39419,N,07250.19019,E,111609.00,A,A*6E
$GPRMC,111610.00,A,1907.39418,N,07250.19016,E,0.111,,080126,,,A*7D
$GPVTG,,T,,M,0.111,N,0.206,K,A*26
$GPGGA,111610.00,1907.39418,N,07250.19016,E,1,05,7.14,22.8,M,-65.6,M,,*4A
$GPGSA,A,3,22,19,06,17,14,,,,,,,,9.94,7.14,6.91*07
$GPGSV,4,1,14,05,02,192,,06,70,038,33,11,62,210,,12,15,318,*74
$GPGSV,4,2,14,13,12,210,,14,32,103,32,15,01,234,,17,24,042,35*7F
$GPGSV,4,3,14,19,39,020,34,20,25,170,,21,17,168,11,22,44,084,37*7D
$GPGSV,4,4,14,24,39,291,,30,05,155,*7D
$GPGLL,1907.39418,N,07250.19016,E,111610.00,A,A*68
$GPRMC,111611.00,A,1907.39415,N,07250.19009,E,0.007,,080126,,,A*79
$GPVTG,,T,,M,0.007,N,0.013,K,A*26
$GPGGA,111611.00,1907.39415,N,07250.19009,E,1,05,7.14,22.6,M,-65.6,M,,*46
$GPGSA,A,3,22,19,06,17,14,,,,,,,,9.94,7.14,6.91*07
$GPGSV,4,1,14,05,02,192,,06,70,038,32,11,62,210,,12,15,318,*75
$GPGSV,4,2,14,13,12,210,,14,32,103,31,15,01,234,,17,24,042,34*7D
$GPGSV,4,3,14,19,39,020,33,20,25,170,,21,17,168,12,22,44,084,36*78
$GPGSV,4,4,14,24,39,291,,30,05,155,*7D
$GPGLL,1907.39415,N,07250.19009,E,111611.00,A,A*6A
$GPRMC,111612.00,A,1907.39414,N,07250.19004,E,0.019,,080126,,,A*79
$GPVTG,,T,,M,0.019,N,0.035,K,A*2D
$GPGGA,111612.00,1907.39414,N,07250.19004,E,1,05,7.14,22.5,M,-65.6,M,,*4A
$GPGSA,A,3,22,19,06,17,14,,,,,,,,9.94,7.14,6.91*07
$GPGSV,4,1,14,05,02,192,,06,70,038,32,11,62,210,,12,15,318,*75
$GPGSV,4,2,14,13,12,210,,14,32,103,32,15,01,234,,17,24,042,35*7F
$GPGSV,4,3,14,19,39,020,34,20,25,170,,21,17,168,13,22,44,084,37*7F
$GPGSV,4,4,14,24,39,291,,30,05,155,*7D
$GPGLL,1907.39414,N,07250.19004,E,111612.00,A,A*65
$GPRMC,111613.00,A,1907.39412,N,07250.19000,E,0.061,,080126,,,A*75
$GPVTG,,T,,M,0.061,N,0.114,K,A*20
$GPGGA,111613.00,1907.39412,N,07250.19000,E,1,05,7.14,22.4,M,-65.6,M,,*48
$GPGSA,A,3,22,19,06,17,14,,,,,,,,9.94,7.14,6.91*07
$GPGSV,4,1,14,05,02,192,,06,70,038,33,11,62,210,,12,15,318,*74
$GPGSV,4,2,14,13,12,210,,14,32,103,33,15,01,234,,17,24,042,35*7E
$GPGSV,4,3,14,19,39,020,34,20,25,170,,21,17,168,13,22,44,084,37*7F
$GPGSV,4,4,14,24,39,291,,30,05,155,*7D
$GPGLL,1907.39412,N,07250.19000,E,111613.00,A,A*66
$GPRMC,111614.00,A,1907.39411,N,07250.18999,E,0.079,,080126,,,A*70
$GPVTG,,T,,M,0.079,N,0.146,K,A*2E
$GPGGA,111614.00,1907.39411,N,07250.18999,E,1,05,7.14,22.3,M,-65.6,M,,*43
$GPGSA,A,3,22,19,06,17,14,,,,,,,,9.94,7.14,6.91*07
$GPGSV,4,1,14,05,02,192,,06,70,038,33,11,62,210,,12,15,318,*74
$GPGSV,4,2,14,13,12,210,,14,32,103,32,15,01,234,,17,24,042,35*7F
$GPGSV,4,3,14,19,39,020,34,20,25,170,,21,17,168,,22,44,084,37*7D
$GPGSV,4,4,14,24,39,291,,30,05,155,*7D
$GPGLL,1907.39411,N,07250.18999,E,111614.00,A,A*6A
$GPRMC,111615.00,A,1907.39409,N,07250.18993,E,0.040,,080126,,,A*78
$GPVTG,,T,,M,0.040,N,0.074,K,A*24
$GPGGA,111615.00,1907.39409,N,07250.18993,E,1,05,7.14,22.2,M,-65.6,M,,*40
$GPGSA,A,3,22,19,06,17,14,,,,,,,,9.94,7.14,6.91*07
$GPGSV,4,1,14,05,02,192,,06,70,038,34,11,62,210,,12,15,318,*73
$GPGSV,4,2,14,13,12,210,,14,32,103,33,15,01,234,,17,24,042,35*7E
$GPGSV,4,3,14,19,39,020,36,20,25,170,,21,17,168,,22,44,084,39*71
$GPGSV,4,4,14,24,39,291,,30,05,155,*7D
$GPGLL,1907.39409,N,07250.18993,E,111615.00,A,A*68
$GPRMC,111616.00,A,1907.39405,N,07250.18987,E,0.014,,080126,,,A*73
$GPVTG,,T,,M,0.014,N,0.026,K,A*22
$GPGGA,111616.00,1907.39405,N,07250.18987,E,1,05,7.14,22.0,M,-65.6,M,,*48
$GPGSA,A,3,22,19,06,17,14,,,,,,,,9.94,7.14,6.91*07
$GPGSV,4,1,14,05,02,192,,06,70,038,34,11,62,210,,12,15,318,*73
$GPGSV,4,2,14,13,12,210,,14,32,103,34,15,01,234,,17,24,042,36*7A
$GPGSV,4,3,14,19,39,020,35,20,25,170,,21,17,168,,22,44,084,39*72
$GPGSV,4,4,14,24,39,291,,30,05,155,*7D
$GPGLL,1907.39405,N,07250.18987,E,111616.00,A,A*62
$GPRMC,111617.00,A,1907.39404,N,07250.18984,E,0.203,,080126,,,A*74
$GPVTG,,T,,M,0.203,N,0.375,K,A*23
$GPGGA,111617.00,1907.39404,N,07250.18984,E,1,05,7.14,21.9,M,-65.6,M,,*41
$GPGSA,A,3,22,19,06,17,14,,,,,,,,9.94,7.14,6.91*07
$GPGSV,4,1,14,05,02,192,,06,70,038,34,11,62,210,,12,15,318,*73
$GPGSV,4,2,14,13,12,210,,14,32,103,34,15,01,234,,17,24,042,36*7A
$GPGSV,4,3,14,19,39,020,36,20,25,170,,21,17,168,,22,44,084,39*71
$GPGSV,4,4,14,24,39,291,,30,05,155,*7D
$GPGLL,1907.39404,N,07250.18984,E,111617.00,A,A*61
$GPRMC,111618.00,A,1907.39401,N,07250.18977,E,0.384,,080126,,,A*7C
$GPVTG,,T,,M,0.384,N,0.711,K,A*2B
$GPGGA,111618.00,1907.39401,N,07250.18977,E,1,05,7.14,21.8,M,-65.6,M,,*46
$GPGSA,A,3,22,19,06,17,14,,,,,,,,9.94,7.14,6.91*07
$GPGSV,4,1,14,05,02,192,,06,70,038,33,11,62,210,,12,15,318,*74
$GPGSV,4,2,14,13,12,210,,14,32,103,33,15,01,234,,17,24,042,36*7D
$GPGSV,4,3,14,19,39,020,35,20,25,170,,21,17,168,,22,44,084,38*73
$GPGSV,4,4,14,24,39,291,,30,05,155,*7D
$GPGLL,1907.39401,N,07250.18977,E,111618.00,A,A*67
$GPRMC,111619.00,A,1907.39400,N,07250.18972,E,0.236,,080126,,,A*71
$GPVTG,,T,,M,0.236,N,0.437,K,A*24
$GPGGA,111619.00,1907.39400,N,07250.18972,E,1,05,7.14,21.7,M,-65.6,M,,*4C
$GPGSA,A,3,22,19,06,17,14,,,,,,,,9.94,7.14,6.91*07
$GPGSV,4,1,14,05,02,192,,06,70,038,33,11,62,210,,12,15,318,*74
$GPGSV,4,2,14,13,12,210,,14,32,103,33,15,01,234,,17,24,042,36*7D
$GPGSV,4,3,14,19,39,020,35,20,25,170,,21,17,168,,22,44,084,38*73
$GPGSV,4,4,14,24,39,291,,30,05,155,*7D
$GPGLL,1907.39400,N,07250.18972,E,111619.00,A,A*62
$GPRMC,111620.00,A,1907.39398,N,07250.18967,E,0.108,,080126,,,A*77
$GPVTG,,T,,M,0.108,N,0.200,K,A*28
$GPGGA,111620.00,1907.39398,N,07250.18967,E,1,05,7.14,21.6,M,-65.6,M,,*45
$GPGSA,A,3,22,19,06,17,14,,,,,,,,9.94,7.14,6.91*07
$GPGSV,4,1,14,05,02,192,,06,70,038,33,11,62,210,,12,15,318,*74
$GPGSV,4,2,14,13,12,210,,14,32,103,33,15,01,234,,17,24,042,35*7E
$GPGSV,4,3,14,19,39,020,35,20,25,170,,21,17,168,,22,44,084,38*73
$GPGSV,4,4,14,24,39,291,,30,05,155,*7D
$GPGLL,1907.39398,N,07250.18967,E,111620.00,A,A*6A
$GPRMC,111621.00,A,1907.39398,N,07250.18969,E,0.085,,080126,,,A*7C
$GPVTG,,T,,M,0.085,N,0.158,K,A*22
$GPGGA,111621.00,1907.39398,N,07250.18969,E,1,05,7.14,21.6,M,-65.6,M,,*4A
$GPGSA,A,3,22,19,06,17,14,,,,,,,,9.94,7.14,6.91*07
$GPGSV,4,1,14,05,02,192,,06,70,038,33,11,62,210,,12,15,318,*74
$GPGSV,4,2,14,13,12,210,,14,32,103,33,15,01,234,,17,24,042,35*7E
$GPGSV,4,3,14,19,39,020,35,20,25,170,,21,17,168,,22,44,084,38*73
$GPGSV,4,4,14,24,39,291,,30,05,155,*7D
$GPGLL,1907.39398,N,07250.18969,E,111621.00,A,A*65
$GPRMC,111622.00,A,1907.39399,N,07250.18968,E,0.143,,080126,,,A*74
$GPVTG,,T,,M,0.143,N,0.265,K,A*24
$GPGGA,111622.00,1907.39399,N,07250.18968,E,1,05,7.14,21.6,M,-65.6,M,,*49
$GPGSA,A,3,22,19,06,17,14,,,,,,,,9.94,7.14,6.91*07
$GPGSV,4,1,14,05,02,192,,06,70,038,33,11,62,210,,12,15,318,*74
$GPGSV,4,2,14,13,12,210,,14,32,103,32,15,01,234,,17,24,042,35*7F
$GPGSV,4,3,14,19,39,020,35,20,25,170,,21,17,168,,22,44,084,37*7C
$GPGSV,4,4,14,24,39,291,,30,05,155,*7D
$GPGLL,1907.39399,N,07250.18968,E,111622.00,A,A*66
$GPRMC,111623.00,A,1907.39400,N,07250.18965,E,0.068,,080126,,,A*77
$GPVTG,,T,,M,0.068,N,0.125,K,A*2B
$GPGGA,111623.00,1907.39400,N,07250.18965,E,1,05,7.14,21.5,M,-65.6,M,,*41
$GPGSA,A,3,22,19,06,17,14,,,,,,,,9.94,7.14,6.90*06
$GPGSV,4,1,14,05,02,192,,06,70,038,34,11,62,210,,12,15,318,*73
$GPGSV,4,2,14,13,12,210,,14,32,103,32,15,01,234,,17,24,042,36*7C
$GPGSV,4,3,14,19,39,020,35,20,25,170,,21,17,168,,22,44,084,37*7C
$GPGSV,4,4,14,24,39,291,,30,05,155,*7D
$GPGLL,1907.39400,N,07250.18965,E,111623.00,A,A*6D
$GPRMC,111624.00,A,1907.39401,N,07250.18964,E,0.115,,080126,,,A*7B
$GPVTG,,T,,M,0.115,N,0.212,K,A*27
$GPGGA,111624.00,1907.39401,N,07250.18964,E,1,05,7.14,21.4,M,-65.6,M,,*47
$GPGSA,A,3,22,19,06,17,14,,,,,,,,9.94,7.14,6.90*06
$GPGSV,4,1,14,05,02,192,,06,70,038,33,11,62,210,,12,15,318,*74
$GPGSV,4,2,14,13,12,210,,14,32,103,32,15,01,234,,17,24,042,35*7F
$GPGSV,4,3,14,19,39,020,34,20,25,170,,21,17,168,,22,44,084,38*72
$GPGSV,4,4,14,24,39,291,,30,05,155,*7D
$GPGLL,1907.39401,N,07250.18964,E,111624.00,A,A*6A
$GPRMC,111625.00,A,1907.39400,N,07250.18960,E,0.103,,080126,,,A*78
$GPVTG,,T,,M,0.103,N,0.191,K,A*28
$GPGGA,111625.00,1907.39400,N,07250.18960,E,1,05,7.15,21.3,M,-65.6,M,,*45
$GPGSA,A,3,22,19,06,17,14,,,,,,,,9.93,7.15,6.90*00
$GPGSV,4,1,14,05,02,192,,06,70,038,33,11,62,210,,12,15,318,*74
$GPGSV,4,2,14,13,12,210,,14,32,103,32,15,01,234,,17,24,042,35*7F
$GPGSV,4,3,14,19,39,020,35,20,25,170,,21,17,168,,22,44,084,38*73
$GPGSV,4,4,14,24,39,291,,30,05,155,*7D
$GPGLL,1907.39400,N,07250.18960,E,111625.00,A,A*6E
$GPRMC,111626.00,A,1907.39398,N,07250.18954,E,0.043,,080126,,,A*7F
$GPVTG,,T,,M,0.043,N,0.080,K,A*2C
$GPGGA,111626.00,1907.39398,N,07250.18954,E,1,05,7.15,21.2,M,-65.6,M,,*46
$GPGSA,A,3,22,19,06,17,14,,,,,,,,9.93,7.15,6.90*00
$GPGSV,4,1,14,05,02,192,,06,70,038,33,11,62,210,,12,15,318,*74
$GPGSV,4,2,14,13,12,210,,14,32,103,33,15,01,234,,17,24,042,35*7E
$GPGSV,4,3,14,19,39,020,35,20,25,170,,21,17,168,,22,44,084,38*73
$GPGSV,4,4,14,24,39,291,,30,05,155,*7D
$GPGLL,1907.39398,N,07250.18954,E,111626.00,A,A*6C
$GPRMC,111627.00,A,1907.39397,N,07250.18950,E,0.022,,080126,,,A*72
$GPVTG,,T,,M,0.022,N,0.041,K,A*26
$GPGGA,111627.00,1907.39397,N,07250.18950,E,1,05,7.15,21.0,M,-65.6,M,,*4E
$GPGSA,A,3,22,19,06,17,14,,,,,,,,9.93,7.15,6.90*00
$GPGSV,4,1,14,05,02,192,,06,70,038,33,11,62,210,,12,15,318,*74
$GPGSV,4,2,14,13,12,210,,14,32,103,32,15,01,234,,17,24,042,35*7F
$GPGSV,4,3,14,19,39,020,35,20,25,170,,21,17,168,,22,44,084,38*73
$GPGSV,4,4,14,24,39,291,,30,05,155,*7D
$GPGLL,1907.39397,N,07250.18950,E,111627.00,A,A*66
$GPRMC,111628.00,A,1907.39399,N,07250.18951,E,0.080,,080126,,,A*7A
$GPVTG,,T,,M,0.080,N,0.147,K,A*29
$GPGGA,111628.00,1907.39399,N,07250.18951,E,1,05,7.15,21.0,M,-65.6,M,,*4E
$GPGSA,A,3,22,19,06,17,14,,,,,,,,9.93,7.15,6.90*00
$GPGSV,4,1,14,05,02,192,,06,70,038,32,11,62,210,,12,15,318,*75
$GPGSV,4,2,14,13,12,210,,14,32,103,32,15,01,234,,17,24,042,34*7E
$GPGSV,4,3,14,19,39,020,35,20,25,170,,21,17,168,,22,44,084,36*7D
$GPGSV,4,4,14,24,39,291,,30,05,155,*7D
$GPGLL,1907.39399,N,07250.18951,E,111628.00,A,A*66
$GPRMC,111629.00,A,1907.39400,N,07250.18953,E,0.199,,080126,,,A*77
$GPVTG,,T,,M,0.199,N,0.368,K,A*2F
$GPGGA,111629.00,1907.39400,N,07250.18953,E,1,05,7.15,21.1,M,-65.6,M,,*4B
$GPGSA,A,3,22,19,06,17,14,,,,,,,,9.93,7.15,6.90*00
$GPGSV,4,1,14,05,02,192,,06,70,038,32,11,62,210,,12,15,318,*75
$GPGSV,4,2,14,13,12,210,,14,32,103,33,15,01,234,,17,24,042,35*7E
$GPGSV,4,3,14,19,39,020,35,20,25,170,,21,17,168,,22,44,084,37*7C
$GPGSV,4,4,14,24,39,291,,30,05,155,*7D
$GPGLL,1907.39400,N,07250.18953,E,111629.00,A,A*62
$GPRMC,111630.00,A,1907.39400,N,07250.18952,E,0.132,,080126,,,A*7F
$GPVTG,,T,,M,0.132,N,0.244,K,A*21
$GPGGA,111630.00,1907.39400,N,07250.18952,E,1,05,7.15,21.0,M,-65.6,M,,*43
$GPGSA,A,3,22,19,06,17,14,,,,,,,,9.93,7.15,6.90*00
$GPGSV,4,1,14,05,02,192,,06,70,038,33,11,62,210,,12,15,318,*74
$GPGSV,4,2,14,13,12,210,,14,32,103,33,15,01,234,,17,24,042,35*7E
$GPGSV,4,3,14,19,39,020,35,20,25,170,,21,17,168,,22,44,084,38*73
$GPGSV,4,4,14,24,39,291,,30,05,155,*7D
$GPGLL,1907.39400,N,07250.18952,E,111630.00,A,A*6B
$GPRMC,111631.00,A,1907.39401,N,07250.18953,E,0.040,,080126,,,A*7A
$GPVTG,,T,,M,0.040,N,0.074,K,A*24
$GPGGA,111631.00,1907.39401,N,07250.18953,E,1,05,7.15,21.0,M,-65.6,M,,*42
$GPGSA,A,3,22,19,06,17,14,,,,,,,,9.93,7.15,6.90*00
$GPGSV,4,1,14,05,02,192,,06,70,038,33,11,62,210,,12,15,318,*74
$GPGSV,4,2,14,13,12,210,,14,32,103,32,15,01,234,,17,24,042,35*7F
$GPGSV,4,3,14,19,39,020,35,20,25,170,,21,17,168,,22,44,084,36*7D
$GPGSV,4,4,14,24,39,291,,30,05,155,*7D
$GPGLL,1907.39401,N,07250.18953,E,111631.00,A,A*6A
$GPRMC,111632.00,A,1907.39403,N,07250.18955,E,0.053,,080126,,,A*7F
$GPVTG,,T,,M,0.053,N,0.099,K,A*25
$GPGGA,111632.00,1907.39403,N,07250.18955,E,1,05,7.15,21.1,M,-65.6,M,,*44
$GPGSA,A,3,22,19,06,17,14,,,,,,,,9.93,7.15,6.90*00
$GPGSV,4,1,14,05,02,192,,06,70,038,33,11,62,210,,12,15,318,*74
$GPGSV,4,2,14,13,12,210,,14,32,103,33,15,01,234,,17,24,042,36*7D
$GPGSV,4,3,14,19,39,020,35,20,25,170,,21,17,168,,22,44,084,38*73
$GPGSV,4,4,14,24,39,291,,30,05,155,*7D
$GPGLL,1907.39403,N,07250.18955,E,111632.00,A,A*6D
$GPRMC,111633.00,A,1907.39404,N,07250.18955,E,0.142,,080126,,,A*78
$GPVTG,,T,,M,0.142,N,0.262,K,A*22
$GPGGA,111633.00,1907.39404,N,07250.18955,E,1,05,7.15,21.2,M,-65.6,M,,*41
$GPGSA,A,3,22,19,06,17,14,,,,,,,,9.93,7.15,6.90*00
$GPGSV,4,1,14,05,02,192,,06,70,038,34,11,62,210,,12,15,318,*73
$GPGSV,4,2,14,13,12,210,,14,32,103,33,15,01,234,,17,24,042,35*7E
$GPGSV,4,3,14,19,39,020,36,20,25,170,,21,17,168,,22,44,084,38*70
$GPGSV,4,4,14,24,39,291,,30,05,155,*7D
$GPGLL,1907.39404,N,07250.18955,E,111633.00,A,A*6B
$GPRMC,111634.00,A,1907.39406,N,07250.18957,E,0.156,,080126,,,A*7A
$GPVTG,,T,,M,0.156,N,0.290,K,A*2A
$GPGGA,111634.00,1907.39406,N,07250.18957,E,1,06,7.15,21.2,M,-65.6,M,,*45
$GPGSA,A,3,22,19,06,17,11,14,,,,,,,9.93,7.15,6.90*00
$GPGSV,4,1,14,05,02,192,,06,70,038,34,11,62,210,15,12,15,318,*77
$GPGSV,4,2,14,13,12,210,,14,32,103,34,15,01,234,,17,24,042,35*79
$GPGSV,4,3,14,19,39,020,36,20,25,170,,21,17,168,,22,44,084,39*71
$GPGSV,4,4,14,24,39,291,,30,05,155,*7D
$GPGLL,1907.39406,N,07250.18957,E,111634.00,A,A*6C
$GPRMC,111635.00,A,1907.39407,N,07250.18959,E,0.086,,080126,,,A*78
$GPVTG,,T,,M,0.086,N,0.160,K,A*2A
$GPGGA,111635.00,1907.39407,N,07250.18959,E,1,06,7.15,21.2,M,-65.6,M,,*4B
$GPGSA,A,3,22,19,06,17,11,14,,,,,,,9.93,7.15,6.89*08
$GPGSV,4,1,14,05,02,192,,06,70,038,34,11,62,210,14,12,15,318,*76
$GPGSV,4,2,14,13,12,210,,14,32,103,33,15,01,234,,17,24,042,35*7E
$GPGSV,4,3,14,19,39,020,36,20,25,170,,21,17,168,,22,44,084,39*71
$GPGSV,4,4,14,24,39,291,,30,05,155,*7D
$GPGLL,1907.39407,N,07250.18959,E,111635.00,A,A*62
$GPRMC,111636.00,A,1907.39408,N,07250.18957,E,0.030,,080126,,,A*77
$GPVTG,,T,,M,0.030,N,0.055,K,A*20
$GPGGA,111636.00,1907.39408,N,07250.18957,E,1,06,7.15,21.2,M,-65.6,M,,*49
$GPGSA,A,3,22,19,06,17,11,14,,,,,,,9.93,7.15,6.89*08
$GPGSV,4,1,14,05,02,192,,06,70,038,33,11,62,210,11,12,15,318,*74
$GPGSV,4,2,14,13,12,210,,14,32,103,33,15,01,234,,17,24,042,35*7E
$GPGSV,4,3,14,19,39,020,36,20,25,170,,21,17,168,,22,44,084,39*71
$GPGSV,4,4,14,24,39,291,,30,05,155,*7D
$GPGLL,1907.39408,N,07250.18957,E,111636.00,A,A*60
$GPRMC,111637.00,A,1907.39406,N,07250.18953,E,0.078,,080126,,,A*70
$GPVTG,,T,,M,0.078,N,0.144,K,A*2D
$GPGGA,111637.00,1907.39406,N,07250.18953,E,1,06,7.15,21.1,M,-65.6,M,,*41
$GPGSA,A,3,22,19,06,17,11,14,,,,,,,9.93,7.15,6.89*08
$GPGSV,4,1,14,05,02,192,,06,70,038,33,11,62,210,11,12,15,318,*74
$GPGSV,4,2,14,13,12,210,,14,32,103,33,15,01,234,,17,24,042,35*7E
$GPGSV,4,3,14,19,39,020,36,20,25,170,,21,17,168,,22,44,084,39*71
$GPGSV,4,4,14,24,39,291,,30,05,155,*7D
$GPGLL,1907.39406,N,07250.18953,E,111637.00,A,A*6B
$GPRMC,111638.00,A,1907.39405,N,07250.18951,E,0.079,,080126,,,A*7F
$GPVTG,,T,,M,0.079,N,0.146,K,A*2E
$GPGGA,111638.00,1907.39405,N,07250.18951,E,1,05,7.15,21.1,M,-65.6,M,,*4C
$GPGSA,A,3,22,19,06,17,14,,,,,,,,9.93,7.15,6.89*08
$GPGSV,4,1,14,05,02,192,,06,70,038,33,11,62,210,09,12,15,318,*7D
$GPGSV,4,2,14,13,12,210,,14,32,103,33,15,01,234,,17,24,042,35*7E
$GPGSV,4,3,14,19,39,020,35,20,25,170,,21,17,168,,22,44,084,38*73
$GPGSV,4,4,14,24,39,291,,30,05,155,*7D
$GPGLL,1907.39405,N,07250.18951,E,111638.00,A,A*65
$GPRMC,111639.00,A,1907.39406,N,07250.18950,E,0.032,,080126,,,A*73
$GPVTG,,T,,M,0.032,N,0.059,K,A*2E
$GPGGA,111639.00,1907.39406,N,07250.18950,E,1,05,7.15,21.2,M,-65.6,M,,*4C
$GPGSA,A,3,22,19,06,17,14,,,,,,,,9.93,7.15,6.89*08
$GPGSV,4,1,14,05,02,192,,06,70,038,33,11,62,210,08,12,15,318,*7C
$GPGSV,4,2,14,13,12,210,,14,32,103,33,15,01,234,,17,24,042,35*7E
$GPGSV,4,3,14,19,39,020,35,20,25,170,,21,17,168,,22,44,084,38*73
$GPGSV,4,4,14,24,39,291,,30,05,155,*7D
$GPGLL,1907.39406,N,07250.18950,E,111639.00,A,A*66
$GPRMC,111640.00,A,1907.39407,N,07250.18951,E,0.034,,080126,,,A*7B
$GPVTG,,T,,M,0.034,N,0.063,K,A*21
$GPGGA,111640.00,1907.39407,N,07250.18951,E,1,05,7.15,21.2,M,-65.6,M,,*42
$GPGSA,A,3,22,19,06,17,14,,,,,,,,9.93,7.15,6.89*08
$GPGSV,4,1,14,05,02,192,,06,70,038,33,11,62,210,08,12,15,318,*7C
$GPGSV,4,2,14,13,12,210,,14,32,103,33,15,01,234,,17,24,042,35*7E
$GPGSV,4,3,14,19,39,020,35,20,25,170,,21,17,168,,22,44,084,38*73
$GPGSV,4,4,14,24,39,291,,30,05,155,*7D
$GPGLL,1907.39407,N,07250.18951,E,111640.00,A,A*68
$GPRMC,111641.00,A,1907.39406,N,07250.18950,E,0.023,,080126,,,A*7C
$GPVTG,,T,,M,0.023,N,0.042,K,A*24
$GPGGA,111641.00,1907.39406,N,07250.18950,E,1,05,7.15,21.2,M,-65.6,M,,*43
$GPGSA,A,3,22,19,06,17,14,,,,,,,,9.93,7.15,6.89*08
$GPGSV,4,1,14,05,02,192,,06,70,038,33,11,62,210,08,12,15,318,*7C
$GPGSV,4,2,14,13,12,210,,14,32,103,33,15,01,234,,17,24,042,35*7E
$GPGSV,4,3,14,19,39,020,35,20,25,170,,21,17,168,,22,44,084,38*73
$GPGSV,4,4,14,24,39,291,,30,05,155,*7D
$GPGLL,1907.39406,N,07250.18950,E,111641.00,A,A*69
$GPRMC,111642.00,A,1907.39407,N,07250.18951,E,0.053,,080126,,,A*78
$GPVTG,,T,,M,0.053,N,0.097,K,A*2B
$GPGGA,111642.00,1907.39407,N,07250.18951,E,1,05,7.15,21.3,M,-65.6,M,,*41
$GPGSA,A,3,22,19,06,17,14,,,,,,,,9.93,7.15,6.89*08
$GPGSV,4,1,14,05,02,192,,06,70,038,33,11,62,210,08,12,15,318,*7C
$GPGSV,4,2,14,13,12,210,,14,32,103,33,15,01,234,,17,24,042,35*7E
$GPGSV,4,3,14,19,39,020,36,20,25,170,,21,17,168,,22,44,084,39*71
$GPGSV,4,4,14,24,39,291,,30,05,155,*7D
$GPGLL,1907.39407,N,07250.18951,E,111642.00,A,A*6A
$GPRMC,111643.00,A,1907.39410,N,07250.18955,E,0.065,,080126,,,A*7E
$GPVTG,,T,,M,0.065,N,0.121,K,A*22
$GPGGA,111643.00,1907.39410,N,07250.18955,E,1,05,7.15,21.4,M,-65.6,M,,*45
$GPGSA,A,3,22,19,06,17,14,,,,,,,,9.93,7.15,6.89*08
$GPGSV,4,1,14,05,02,192,,06,70,038,33,11,62,210,08,12,15,318,*7C
$GPGSV,4,2,14,13,12,210,,14,32,103,33,15,01,234,,17,24,042,35*7E
$GPGSV,4,3,14,19,39,020,35,20,25,170,,21,17,168,,22,44,084,38*73
$GPGSV,4,4,14,24,39,291,,30,05,155,*7D
$GPGLL,1907.39410,N,07250.18955,E,111643.00,A,A*69
$GPRMC,111644.00,A,1907.39413,N,07250.18961,E,0.049,,080126,,,A*73
$GPVTG,,T,,M,0.049,N,0.091,K,A*26
$GPGGA,111644.00,1907.39413,N,07250.18961,E,1,05,7.15,21.5,M,-65.6,M,,*47
$GPGSA,A,3,22,19,06,17,14,,,,,,,,9.93,7.15,6.89*08
$GPGSV,4,1,14,05,02,192,,06,70,038,33,11,62,210,,12,15,318,*74
$GPGSV,4,2,14,13,12,210,,14,32,103,33,15,01,234,,17,24,042,35*7E
$GPGSV,4,3,14,19,39,020,35,20,25,170,,21,17,168,,22,44,084,38*73
$GPGSV,4,4,14,24,39,291,,30,05,155,*7D
$GPGLL,1907.39413,N,07250.18961,E,111644.00,A,A*6A
$GPRMC,111645.00,A,1907.39415,N,07250.18964,E,0.014,,080126,,,A*79
$GPVTG,,T,,M,0.014,N,0.026,K,A*22
$GPGGA,111645.00,1907.39415,N,07250.18964,E,1,05,7.15,21.6,M,-65.6,M,,*46
$GPGSA,A,3,22,19,06,17,14,,,,,,,,9.93,7.15,6.89*08
$GPGSV,4,1,14,05,02,191,,06,70,038,33,11,62,210,,12,15,318,*77
$GPGSV,4,2,14,13,12,210,,14,32,103,33,15,01,234,,17,24,042,35*7E
$GPGSV,4,3,14,19,39,020,35,20,25,170,,21,17,168,,22,44,084,38*73
$GPGSV,4,4,14,24,39,291,,30,05,155,*7D
$GPGLL,1907.39415,N,07250.18964,E,111645.00,A,A*68
$GPRMC,111646.00,A,1907.39417,N,07250.18966,E,0.016,,080126,,,A*78
$GPVTG,,T,,M,0.016,N,0.029,K,A*2F
$GPGGA,111646.00,1907.39417,N,07250.18966,E,1,05,7.15,21.6,M,-65.6,M,,*45
$GPGSA,A,3,22,19,06,17,14,,,,,,,,9.92,7.15,6.89*09
$GPGSV,4,1,14,05,02,191,,06,70,037,32,11,62,210,,12,15,318,*79
$GPGSV,4,2,14,13,12,210,,14,32,103,32,15,01,234,,17,24,042,34*7E
$GPGSV,4,3,14,19,39,020,35,20,25,170,,21,17,168,,22,44,084,37*7C
$GPGSV,4,4,14,24,39,291,,30,05,155,*7D
$GPGLL,1907.39417,N,07250.18966,E,111646.00,A,A*6B
$GPRMC,111647.00,A,1907.39418,N,07250.18967,E,0.014,,080126,,,A*75
$GPVTG,,T,,M,0.014,N,0.026,K,A*22
$GPGGA,111647.00,1907.39418,N,07250.18967,E,1,05,7.15,21.7,M,-65.6,M,,*4B
$GPGSA,A,3,22,19,06,17,14,,,,,,,,9.92,7.15,6.89*09
$GPGSV,4,1,14,05,02,191,,06,70,037,32,11,62,210,,12,15,318,*79
$GPGSV,4,2,14,13,12,210,,14,32,103,31,15,01,234,,17,24,042,34*7D
$GPGSV,4,3,14,19,39,020,33,20,25,170,,21,17,168,,22,44,084,36*7B
$GPGSV,4,4,14,24,39,291,,30,05,155,*7D
$GPGLL,1907.39418,N,07250.18967,E,111647.00,A,A*64
$GPRMC,111648.00,A,1907.39418,N,07250.18968,E,0.021,,080126,,,A*73
$GPVTG,,T,,M,0.021,N,0.038,K,A*2B
$GPGGA,111648.00,1907.39418,N,07250.18968,E,1,05,7.15,21.6,M,-65.6,M,,*4A
$GPGSA,A,3,22,19,06,17,14,,,,,,,,9.92,7.15,6.88*08
$GPGSV,4,1,14,05,02,191,,06,70,037,32,11,62,210,,12,15,318,*79
$GPGSV,4,2,14,13,12,210,,14,32,103,32,15,01,234,,17,24,042,34*7E
$GPGSV,4,3,14,19,39,020,34,20,25,170,,21,17,168,,22,44,084,35*7F
$GPGSV,4,4,14,24,39,291,,30,05,155,*7D
$GPGLL,1907.39418,N,07250.18968,E,111648.00,A,A*64
$GPRMC,111649.00,A,1907.39416,N,07250.18967,E,0.057,,080126,,,A*72
$GPVTG,,T,,M,0.057,N,0.106,K,A*26
$GPGGA,111649.00,1907.39416,N,07250.18967,E,1,05,7.15,21.6,M,-65.6,M,,*4A
$GPGSA,A,3,22,19,06,17,14,,,,,,,,9.92,7.15,6.88*08
$GPGSV,4,1,14,05,02,191,,06,70,037,33,11,62,210,,12,15,318,*78
$GPGSV,4,2,14,13,12,210,,14,32,103,33,15,01,234,,17,24,042,37*7C
$GPGSV,4,3,14,19,39,020,37,20,25,170,,21,17,168,,22,44,084,39*70
$GPGSV,4,4,14,24,39,291,,30,05,155,*7D
$GPGLL,1907.39416,N,07250.18967,E,111649.00,A,A*64
$GPRMC,111650.00,A,1907.39420,N,07250.18973,E,0.064,,080126,,,A*7A
$GPVTG,,T,,M,0.064,N,0.118,K,A*29
$GPGGA,111650.00,1907.39420,N,07250.18973,E,1,05,7.15,21.7,M,-65.6,M,,*43
$GPGSA,A,3,22,19,06,17,14,,,,,,,,9.92,7.15,6.88*08
$GPGSV,4,1,14,05,02,191,,06,70,037,33,11,62,210,,12,15,318,*78
$GPGSV,4,2,14,13,12,210,,14,32,103,33,15,01,234,,17,24,042,36*7D
$GPGSV,4,3,14,19,39,020,36,20,25,170,,21,17,168,,22,44,084,38*70
$GPGSV,4,4,14,24,39,291,,30,05,155,*7D
$GPGLL,1907.39420,N,07250.18973,E,111650.00,A,A*6C
$GPRMC,111651.00,A,1907.39420,N,07250.18973,E,0.119,,080126,,,A*70
$GPVTG,,T,,M,0.119,N,0.221,K,A*2B
$GPGGA,111651.00,1907.39420,N,07250.18973,E,1,05,7.15,21.7,M,-65.6,M,,*42
$GPGSA,A,3,22,19,06,17,14,,,,,,,,9.92,7.15,6.88*08
$GPGSV,4,1,14,05,02,191,,06,70,037,33,11,62,211,,12,15,318,*79
$GPGSV,4,2,14,13,12,210,,14,32,103,33,15,01,234,,17,24,042,36*7D
$GPGSV,4,3,14,19,39,020,36,20,25,170,,21,17,168,,22,44,084,38*70
$GPGSV,4,4,14,24,39,291,,30,05,155,*7D
$GPGLL,1907.39420,N,07250.18973,E,111651.00,A,A*6D
$GPRMC,111652.00,A,1907.39419,N,07250.18973,E,0.083,,080126,,,A*7B
$GPVTG,,T,,M,0.083,N,0.154,K,A*28
$GPGGA,111652.00,1907.39419,N,07250.18973,E,1,05,7.15,21.7,M,-65.6,M,,*4B
$GPGSA,A,3,22,19,06,17,14,,,,,,,,9.92,7.15,6.88*08
$GPGSV,4,1,14,05,02,191,,06,70,037,33,11,62,211,,12,15,319,*78
$GPGSV,4,2,14,13,12,210,,14,32,103,33,15,01,234,,17,24,042,35*7E
$GPGSV,4,3,14,19,39,020,36,20,25,170,,21,17,168,18,22,44,084,38*79
$GPGSV,4,4,14,24,39,291,,30,05,155,*7D
$GPGLL,1907.39419,N,07250.18973,E,111652.00,A,A*64
$GPRMC,111653.00,A,1907.39418,N,07250.18969,E,0.063,,080126,,,A*7E
$GPVTG,,T,,M,0.063,N,0.117,K,A*21
$GPGGA,111653.00,1907.39418,N,07250.18969,E,1,05,7.15,21.7,M,-65.6,M,,*40
$GPGSA,A,3,22,19,06,17,14,,,,,,,,9.92,7.15,6.88*08
$GPGSV,4,1,14,05,02,191,,06,70,037,33,11,62,211,,12,15,319,*78
$GPGSV,4,2,14,13,12,209,,14,32,103,33,15,01,234,,17,24,042,35*76
$GPGSV,4,3,14,19,39,020,36,20,25,170,,21,17,168,17,22,44,084,38*76
$GPGSV,4,4,14,24,39,291,,30,05,155,*7D
$GPGLL,1907.39418,N,07250.18969,E,111653.00,A,A*6F
$GPRMC,111654.00,A,1907.39418,N,07250.18967,E,0.144,,080126,,,A*73
$GPVTG,,T,,M,0.144,N,0.266,K,A*20
$GPGGA,111654.00,1907.39418,N,07250.18967,E,1,05,7.15,21.7,M,-65.6,M,,*49
$GPGSA,A,3,22,19,06,17,14,,,,,,,,9.92,7.15,6.88*08
$GPGSV,4,1,14,05,02,191,,06,70,037,33,11,62,211,,12,15,319,*78
$GPGSV,4,2,14,13,12,209,,14,31,104,32,15,01,234,,17,24,042,35*73
$GPGSV,4,3,14,19,39,020,36,20,25,170,,21,17,168,16,22,44,084,38*77
$GPGSV,4,4,14,24,39,291,,30,05,155,*7D
$GPGLL,1907.39418,N,07250.18967,E,111654.00,A,A*66
$GPRMC,111655.00,A,1907.39418,N,07250.18968,E,0.018,,080126,,,A*75
$GPVTG,,T,,M,0.018,N,0.033,K,A*2A
$GPGGA,111655.00,1907.39418,N,07250.18968,E,1,05,7.15,21.8,M,-65.6,M,,*48
$GPGSA,A,3,22,19,06,17,14,,,,,,,,9.92,7.15,6.88*08
$GPGSV,4,1,14,05,02,191,,06,70,037,33,11,62,211,,12,15,319,*78
$GPGSV,4,2,14,13,12,209,,14,31,104,33,15,01,234,,17,24,042,35*72
$GPGSV,4,3,14,19,39,020,36,20,25,170,,21,17,168,17,22,44,084,38*76
$GPGSV,4,4,14,24,39,291,,30,05,155,*7D
$GPGLL,1907.39418,N,07250.18968,E,111655.00,A,A*68
$GPRMC,111656.00,A,1907.39419,N,07250.18969,E,0.138,,080126,,,A*75
$GPVTG,,T,,M,0.138,N,0.256,K,A*28
$GPGGA,111656.00,1907.39419,N,07250.18969,E,1,05,7.15,21.8,M,-65.6,M,,*4B
$GPGSA,A,3,22,19,06,17,14,,,,,,,,9.92,7.15,6.88*08
$GPGSV,4,1,14,05,02,191,,06,70,037,33,11,62,211,,12,15,319,*78
$GPGSV,4,2,14,13,12,209,,14,31,104,32,15,01,234,,17,24,042,36*70
$GPGSV,4,3,14,19,39,020,36,20,25,170,,21,17,168,19,22,44,084,38*78
$GPGSV,4,4,14,24,39,291,,30,05,155,*7D
$GPGLL,1907.39419,N,07250.18969,E,111656.00,A,A*6B
$GPRMC,111657.00,A,1907.39421,N,07250.18971,E,0.094,,080126,,,A*71
$GPVTG,,T,,M,0.094,N,0.175,K,A*2D
$GPGGA,111657.00,1907.39421,N,07250.18971,E,1,05,7.15,21.7,M,-65.6,M,,*47
$GPGSA,A,3,22,19,06,17,14,,,,,,,,9.92,7.15,6.88*08
$GPGSV,4,1,14,05,02,191,,06,70,037,34,11,62,211,,12,15,319,*7F
$GPGSV,4,2,14,13,12,209,,14,31,104,33,15,01,234,,17,24,042,35*72
$GPGSV,4,3,14,19,39,020,36,20,25,170,,21,17,168,18,22,44,084,38*79
$GPGSV,4,4,14,24,39,291,,30,05,155,*7D
$GPGLL,1907.39421,N,07250.18971,E,111657.00,A,A*68
$GPRMC,111658.00,A,1907.39423,N,07250.18973,E,0.094,,080126,,,A*7E
$GPVTG,,T,,M,0.094,N,0.174,K,A*2C
$GPGGA,111658.00,1907.39423,N,07250.18973,E,1,05,7.15,21.7,M,-65.6,M,,*48
$GPGSA,A,3,22,19,06,17,14,,,,,,,,9.92,7.15,6.88*08
$GPGSV,4,1,14,05,02,191,,06,70,037,33,11,62,211,,12,15,319,*78
$GPGSV,4,2,14,13,12,209,,14,31,104,32,15,01,234,,17,24,042,35*73
$GPGSV,4,3,14,19,39,020,36,20,25,170,,21,17,168,,22,44,084,38*70
$GPGSV,4,4,14,24,39,291,,30,05,155,*7D
$GPGLL,1907.39423,N,07250.18973,E,111658.00,A,A*67
$GPRMC,111659.00,A,1907.39425,N,07250.18976,E,0.185,,080126,,,A*7D
$GPVTG,,T,,M,0.185,N,0.342,K,A*2A
$GPGGA,111659.00,1907.39425,N,07250.18976,E,1,05,7.15,21.7,M,-65.6,M,,*4A
$GPGSA,A,3,22,19,06,17,14,,,,,,,,9.92,7.15,6.88*08
$GPGSV,4,1,14,05,02,191,,06,70,037,33,11,62,211,,12,15,319,*78
$GPGSV,4,2,14,13,12,209,,14,31,104,32,15,01,234,,17,24,042,35*73
$GPGSV,4,3,14,19,39,021,35,20,25,170,,21,17,168,,22,44,084,38*72
$GPGSV,4,4,14,24,39,291,,30,05,155,*7D
$GPGLL,1907.39425,N,07250.18976,E,111659.00,A,A*65
$GPRMC,111700.00,A,1907.39425,N,07250.18972,E,0.184,,080126,,,A*75
$GPVTG,,T,,M,0.184,N,0.340,K,A*29
$GPGGA,111700.00,1907.39425,N,07250.18972,E,1,05,7.15,21.7,M,-65.6,M,,*43
$GPGSA,A,3,22,19,06,17,14,,,,,,,,9.92,7.15,6.87*07
$GPGSV,4,1,14,05,02,191,,06,70,037,33,11,62,211,,12,15,319,*78
$GPGSV,4,2,14,13,12,209,,14,31,104,32,15,01,234,,17,24,042,35*73
$GPGSV,4,3,14,19,39,021,35,20,25,169,,21,17,168,,22,44,084,38*7A
$GPGSV,4,4,14,24,39,291,,30,05,155,*7D
$GPGLL,1907.39425,N,07250.18972,E,111700.00,A,A*6C
$GPRMC,111701.00,A,1907.39427,N,07250.18974,E,0.091,,080126,,,A*75
$GPVTG,,T,,M,0.091,N,0.168,K,A*24
$GPGGA,111701.00,1907.39427,N,07250.18974,E,1,05,7.15,21.8,M,-65.6,M,,*49
$GPGSA,A,3,22,19,06,17,14,,,,,,,,9.92,7.15,6.87*07
$GPGSV,4,1,14,05,02,191,,06,70,037,33,11,62,211,,12,15,319,*78
$GPGSV,4,2,14,13,12,209,,14,31,104,32,15,01,234,,17,24,042,35*73
$GPGSV,4,3,14,19,39,021,36,20,25,169,,21,17,167,,22,44,084,38*76
$GPGSV,4,4,14,24,39,291,,30,05,155,*7D
$GPGLL,1907.39427,N,07250.18974,E,111701.00,A,A*69
$GPRMC,111702.00,A,1907.39431,N,07250.18981,E,0.016,,080126,,,A*74
$GPVTG,,T,,M,0.016,N,0.030,K,A*27
$GPGGA,111702.00,1907.39431,N,07250.18981,E,1,05,7.15,21.9,M,-65.6,M,,*46
$GPGSA,A,3,22,19,06,17,14,,,,,,,,9.92,7.15,6.87*07
$GPGSV,4,1,14,05,02,191,,06,70,037,33,11,62,211,,12,15,319,*78
$GPGSV,4,2,14,13,12,209,,14,31,104,32,15,01,234,,17,24,042,35*73
$GPGSV,4,3,14,19,39,021,35,20,25,169,,21,17,167,,22,44,085,37*7B
$GPGSV,4,4,14,24,39,291,,30,05,155,*7D
$GPGLL,1907.39431,N,07250.18981,E,111702.00,A,A*67
$GPRMC,111703.00,A,1907.39433,N,07250.18984,E,0.020,,080126,,,A*77
$GPVTG,,T,,M,0.020,N,0.037,K,A*25
$GPGGA,111703.00,1907.39433,N,07250.18984,E,1,05,7.15,22.0,M,-65.6,M,,*4A
$GPGSA,A,3,22,19,06,17,14,,,,,,,,9.92,7.15,6.87*07
$GPGSV,4,1,14,05,02,191,,06,70,037,32,11,62,211,,12,15,319,*79
$GPGSV,4,2,14,13,12,209,,14,31,104,31,15,01,234,,17,24,042,35*70
$GPGSV,4,3,14,19,39,021,35,20,25,169,,21,17,167,,22,44,085,37*7B
$GPGSV,4,4,14,24,39,291,,30,05,155,*7D
$GPGLL,1907.39433,N,07250.18984,E,111703.00,A,A*61
$GPRMC,111704.00,A,1907.39435,N,07250.18986,E,0.100,,080126,,,A*77
$GPVTG,,T,,M,0.100,N,0.186,K,A*2D
$GPGGA,111704.00,1907.39435,N,07250.18986,E,1,05,7.15,22.1,M,-65.6,M,,*48
$GPGSA,A,3,22,19,06,17,14,,,,,,,,9.92,7.15,6.87*07
$GPGSV,4,1,14,05,02,191,,06,70,037,33,11,62,211,,12,15,319,*78
$GPGSV,4,2,14,13,12,209,,14,31,104,32,15,01,234,,17,24,042,35*73
$GPGSV,4,3,14,19,39,021,36,20,25,169,,21,17,167,,22,44,085,38*77
$GPGSV,4,4,14,24,39,290,,30,05,155,*7C
$GPGLL,1907.39435,N,07250.18986,E,111704.00,A,A*62
$GPRMC,111705.00,A,1907.39434,N,07250.18984,E,0.072,,080126,,,A*71
$GPVTG,,T,,M,0.072,N,0.134,K,A*20
$GPGGA,111705.00,1907.39434,N,07250.18984,E,1,05,7.15,22.1,M,-65.6,M,,*4A
$GPGSA,A,3,22,19,06,17,14,,,,,,,,9.92,7.15,6.87*07
$GPGSV,4,1,14,05,02,191,,06,70,037,33,11,62,211,,12,15,319,*78
$GPGSV,4,2,14,13,12,209,,14,31,104,31,15,01,234,,17,24,042,35*70
$GPGSV,4,3,14,19,39,021,36,20,25,169,,21,17,167,19,22,44,085,38*7F
$GPGSV,4,4,14,24,39,290,,30,05,155,*7C
$GPGLL,1907.39434,N,07250.18984,E,111705.00,A,A*60
$GPRMC,111706.00,A,1907.39435,N,07250.18985,E,0.029,,080126,,,A*7C
$GPVTG,,T,,M,0.029,N,0.053,K,A*2E
$GPGGA,111706.00,1907.39435,N,07250.18985,E,1,05,7.15,22.2,M,-65.6,M,,*4A
$GPGSA,A,3,22,19,06,17,14,,,,,,,,9.92,7.15,6.87*07
$GPGSV,4,1,14,05,02,191,,06,70,037,33,11,62,211,,12,15,319,*78
$GPGSV,4,2,14,13,12,209,,14,31,104,31,15,01,234,,17,24,042,35*70
$GPGSV,4,3,14,19,39,021,36,20,25,169,,21,17,167,19,22,44,085,38*7F
$GPGSV,4,4,14,24,39,290,,30,05,155,*7C
$GPGLL,1907.39435,N,07250.18985,E,111706.00,A,A*63
$GPRMC,111707.00,A,1907.39436,N,07250.18986,E,0.003,,080126,,,A*75
$GPVTG,,T,,M,0.003,N,0.005,K,A*25
$GPGGA,111707.00,1907.39436,N,07250.18986,E,1,05,7.15,22.2,M,-65.6,M,,*4B
$GPGSA,A,3,22,19,06,17,14,,,,,,,,9.92,7.15,6.87*07
$GPGSV,4,1,14,05,02,191,,06,70,037,33,11,62,211,,12,15,319,*78
$GPGSV,4,2,14,13,12,209,,14,31,104,32,15,01,234,,17,24,042,35*73
$GPGSV,4,3,14,19,39,021,36,20,25,169,,21,17,167,18,22,44,085,38*7E
$GPGSV,4,4,14,24,39,290,,30,05,155,*7C
$GPGLL,1907.39436,N,07250.18986,E,111707.00,A,A*62
$GPRMC,111708.00,A,1907.39435,N,07250.18981,E,0.034,,080126,,,A*7A
$GPVTG,,T,,M,0.034,N,0.063,K,A*21
$GPGGA,111708.00,1907.39435,N,07250.18981,E,1,05,7.15,22.2,M,-65.6,M,,*40
$GPGSA,A,3,22,19,06,17,14,,,,,,,,9.91,7.15,6.87*04
$GPGSV,4,1,14,05,02,191,,06,70,037,33,11,62,211,,12,15,319,*78
$GPGSV,4,2,14,13,12,209,,14,31,104,32,15,01,234,,17,24,042,35*73
$GPGSV,4,3,14,19,39,021,36,20,25,169,,21,17,167,18,22,44,085,38*7E
$GPGSV,4,4,14,24,39,290,,30,05,155,*7C
$GPGLL,1907.39435,N,07250.18981,E,111708.00,A,A*69
$GPRMC,111709.00,A,1907.39434,N,07250.18978,E,0.116,,080126,,,A*7D
$GPVTG,,T,,M,0.116,N,0.215,K,A*23
$GPGGA,111709.00,1907.39434,N,07250.18978,E,1,05,7.15,22.2,M,-65.6,M,,*46
$GPGSA,A,3,22,19,06,17,14,,,,,,,,9.91,7.15,6.87*04
$GPGSV,4,1,14,05,02,191,,06,70,037,33,11,62,211,,12,15,319,*78
$GPGSV,4,2,14,13,12,209,,14,31,104,32,15,01,234,,17,24,042,35*73
$GPGSV,4,3,14,19,39,021,36,20,25,169,,21,17,167,18,22,44,085,38*7E
$GPGSV,4,4,14,24,39,290,,30,05,155,*7C
$GPGLL,1907.39434,N,07250.18978,E,111709.00,A,A*6F
$GPRMC,111710.00,A,1907.39434,N,07250.18975,E,0.049,,080126,,,A*73
$GPVTG,,T,,M,0.049,N,0.091,K,A*26
$GPGGA,111710.00,1907.39434,N,07250.18975,E,1,05,7.15,22.2,M,-65.6,M,,*43
$GPGSA,A,3,22,19,06,17,14,,,,,,,,9.91,7.15,6.87*04
$GPGSV,4,1,14,05,02,191,,06,70,037,33,11,62,211,,12,15,319,*78
$GPGSV,4,2,14,13,12,209,,14,31,104,32,15,01,234,,17,24,042,35*73
$GPGSV,4,3,14,19,39,021,36,20,25,169,,21,17,167,18,22,44,085,38*7E
$GPGSV,4,4,14,24,39,290,,30,05,155,*7C
$GPGLL,1907.39434,N,07250.18975,E,111710.00,A,A*6A
$GPRMC,111711.00,A,1907.39436,N,07250.18978,E,0.126,,080126,,,A*75
$GPVTG,,T,,M,0.126,N,0.234,K,A*23
$GPGGA,111711.00,1907.39436,N,07250.18978,E,1,05,7.15,22.2,M,-65.6,M,,*4D
$GPGSA,A,3,22,19,06,17,14,,,,,,,,9.91,7.15,6.87*04
$GPGSV,4,1,14,05,02,191,,06,70,037,33,11,62,211,,12,15,319,*78
$GPGSV,4,2,14,13,12,209,,14,31,104,32,15,01,234,,17,24,042,35*73
$GPGSV,4,3,14,19,39,021,36,20,25,169,,21,17,167,19,22,44,085,38*7F
$GPGSV,4,4,14,24,39,290,,30,05,155,*7C
$GPGLL,1907.39436,N,07250.18978,E,111711.00,A,A*64
$GPRMC,111712.00,A,1907.39436,N,07250.18978,E,0.093,,080126,,,A*79
$GPVTG,,T,,M,0.093,N,0.172,K,A*2D
$GPGGA,111712.00,1907.39436,N,07250.18978,E,1,05,7.15,22.2,M,-65.6,M,,*4E
$GPGSA,A,3,22,19,06,17,14,,,,,,,,9.91,7.15,6.87*04
$GPGSV,4,1,14,05,02,191,,06,70,037,29,11,62,211,,12,15,319,*73
$GPGSV,4,2,14,13,12,209,,14,31,104,31,15,01,234,,17,24,042,34*71
$GPGSV,4,3,14,19,39,021,33,20,25,169,,21,17,167,18,22,44,085,36*75
$GPGSV,4,4,14,24,39,290,,30,05,155,*7C
$GPGLL,1907.39436,N,07250.18978,E,111712.00,A,A*67
$GPRMC,111713.00,A,1907.39437,N,07250.18982,E,0.045,,080126,,,A*77
$GPVTG,,T,,M,0.045,N,0.083,K,A*29
$GPGGA,111713.00,1907.39437,N,07250.18982,E,1,05,7.15,22.3,M,-65.6,M,,*4A
$GPGSA,A,3,22,19,06,17,14,,,,,,,,9.91,7.15,6.86*05
$GPGSV,4,1,14,05,02,191,,06,70,037,32,11,62,211,,12,15,319,*79
$GPGSV,4,2,14,13,12,209,,14,31,104,31,15,01,234,,17,24,042,35*70
$GPGSV,4,3,14,19,39,021,35,20,25,169,,21,17,167,18,22,44,085,37*72
$GPGSV,4,4,14,24,39,290,,30,05,155,*7C
$GPGLL,1907.39437,N,07250.18982,E,111713.00,A,A*62
$GPRMC,111714.00,A,1907.39439,N,07250.18988,E,0.042,,080126,,,A*73
$GPVTG,,T,,M,0.042,N,0.077,K,A*25
$GPGGA,111714.00,1907.39439,N,07250.18988,E,1,05,7.15,22.4,M,-65.6,M,,*4E
$GPGSA,A,3,22,19,06,17,14,,,,,,,,9.91,7.15,6.86*05
$GPGSV,4,1,14,05,02,191,,06,70,037,32,11,62,211,,12,15,319,*79
$GPGSV,4,2,14,13,12,209,,14,31,104,31,15,01,234,,17,24,042,35*70
$GPGSV,4,3,14,19,39,021,35,20,25,169,,21,17,167,17,22,44,085,38*72
$GPGSV,4,4,14,24,39,290,,30,05,155,*7C
$GPGLL,1907.39439,N,07250.18988,E,111714.00,A,A*61
$GPRMC,111715.00,A,1907.39441,N,07250.18992,E,0.079,,080126,,,A*7E
$GPVTG,,T,,M,0.079,N,0.146,K,A*2E
$GPGGA,111715.00,1907.39441,N,07250.18992,E,1,05,7.15,22.5,M,-65.6,M,,*4A
$GPGSA,A,3,22,19,06,17,14,,,,,,,,9.91,7.15,6.86*05
$GPGSV,4,1,14,05,02,191,,06,70,037,32,11,62,211,,12,15,319,*79
$GPGSV,4,2,14,13,12,209,,14,31,104,31,15,01,234,,17,24,042,35*70
$GPGSV,4,3,14,19,39,021,36,20,25,169,,21,17,167,18,22,44,085,37*71
$GPGSV,4,4,14,24,39,290,,30,05,155,*7C
$GPGLL,1907.39441,N,07250.18992,E,111715.00,A,A*64
$GPRMC,111716.00,A,1907.39442,N,07250.18996,E,0.057,,080126,,,A*76
$GPVTG,,T,,M,0.057,N,0.105,K,A*25
$GPGGA,111716.00,1907.39442,N,07250.18996,E,1,05,7.15,22.6,M,-65.6,M,,*4D
$GPGSA,A,3,22,19,06,17,14,,,,,,,,9.91,7.15,6.86*05
$GPGSV,4,1,14,05,02,191,,06,70,037,33,11,62,211,,12,15,319,*78
$GPGSV,4,2,14,13,12,209,,14,31,104,31,15,01,234,,17,24,042,35*70
$GPGSV,4,3,14,19,39,021,36,20,25,169,,21,17,167,18,22,44,085,39*7F
$GPGSV,4,4,14,24,39,290,,30,05,155,*7C
$GPGLL,1907.39442,N,07250.18996,E,111716.00,A,A*60
$GPRMC,111717.00,A,1907.39445,N,07250.19001,E,0.051,,080126,,,A*70
$GPVTG,,T,,M,0.051,N,0.095,K,A*2B
$GPGGA,111717.00,1907.39445,N,07250.19001,E,1,05,7.15,22.6,M,-65.6,M,,*4D
$GPGSA,A,3,22,19,06,17,14,,,,,,,,9.91,7.15,6.86*05
$GPGSV,4,1,14,05,02,191,,06,70,037,32,11,62,211,,12,15,319,*79
$GPGSV,4,2,14,13,12,209,,14,31,104,30,15,01,234,,17,24,042,35*71
$GPGSV,4,3,14,19,39,021,35,20,25,169,,21,17,167,19,22,44,085,37*73
$GPGSV,4,4,14,24,39,290,,30,05,155,*7C
$GPGLL,1907.39445,N,07250.19001,E,111717.00,A,A*60
$GPRMC,111718.00,A,1907.39446,N,07250.19002,E,0.114,,080126,,,A*7F
$GPVTG,,T,,M,0.114,N,0.211,K,A*25
$GPGGA,111718.00,1907.39446,N,07250.19002,E,1,05,7.15,22.7,M,-65.6,M,,*43
$GPGSA,A,3,22,19,06,17,14,,,,,,,,9.91,7.15,6.86*05
$GPGSV,4,1,14,05,02,191,,06,70,037,32,11,62,211,,12,15,319,*79
$GPGSV,4,2,14,13,12,209,,14,31,104,30,15,01,234,,17,24,042,34*70
$GPGSV,4,3,14,19,39,021,35,20,25,169,,21,17,167,19,22,44,085,37*73
$GPGSV,4,4,14,24,39,290,,30,05,155,*7C
$GPGLL,1907.39446,N,07250.19002,E,111718.00,A,A*6F
$GPRMC,111719.00,A,1907.39449,N,07250.19012,E,0.080,,080126,,,A*7C
$GPVTG,,T,,M,0.080,N,0.148,K,A*26
$GPGGA,111719.00,1907.39449,N,07250.19012,E,1,06,7.15,22.8,M,-65.6,M,,*40
$GPGSA,A,3,22,19,06,17,11,14,,,,,,,9.91,7.15,6.86*05
$GPGSV,4,1,14,05,02,191,,06,70,037,33,11,62,211,18,12,15,319,*71
$GPGSV,4,2,14,13,12,209,,14,31,104,32,15,01,234,,17,24,042,37*71
$GPGSV,4,3,14,19,39,021,38,20,25,169,,21,17,167,20,22,44,085,39*7A
$GPGSV,4,4,14,24,39,290,,30,05,155,*7C
$GPGLL,1907.39449,N,07250.19012,E,111719.00,A,A*60
$GPRMC,111720.00,A,1907.39450,N,07250.19019,E,0.016,,080126,,,A*7A
$GPVTG,,T,,M,0.016,N,0.030,K,A*27
$GPGGA,111720.00,1907.39450,N,07250.19019,E,1,06,7.15,22.9,M,-65.6,M,,*48
$GPGSA,A,3,22,19,06,17,11,14,,,,,,,9.91,7.15,6.86*05
$GPGSV,4,1,14,05,02,191,,06,70,037,34,11,62,211,15,12,15,319,*7B
$GPGSV,4,2,14,13,12,209,,14,31,104,32,15,01,234,,17,24,042,36*70
$GPGSV,4,3,14,19,39,021,37,20,25,169,,21,17,167,19,22,44,085,39*7F
$GPGSV,4,4,14,24,39,290,,30,05,155,*7C
$GPGLL,1907.39450,N,07250.19019,E,111720.00,A,A*69
$GPRMC,111721.00,A,1907.39449,N,07250.19022,E,0.015,,080126,,,A*78
$GPVTG,,T,,M,0.015,N,0.028,K,A*2D
$GPGGA,111721.00,1907.39449,N,07250.19022,E,1,06,7.15,22.9,M,-65.6,M,,*49
$GPGSA,A,3,22,19,06,17,11,14,,,,,,,9.91,7.15,6.86*05
$GPGSV,4,1,14,05,02,191,,06,70,037,32,11,62,211,11,12,15,319,*79
$GPGSV,4,2,14,13,12,209,,14,31,104,31,15,01,234,,17,24,042,35*70
$GPGSV,4,3,14,19,39,021,37,20,25,169,,21,17,167,20,22,44,085,37*7B
$GPGSV,4,4,14,24,39,290,,30,05,155,*7C
$GPGLL,1907.39449,N,07250.19022,E,111721.00,A,A*68
$GPRMC,111722.00,A,1907.39449,N,07250.19025,E,0.029,,080126,,,A*73
$GPVTG,,T,,M,0.029,N,0.054,K,A*29
$GPGGA,111722.00,1907.39449,N,07250.19025,E,1,06,7.15,23.0,M,-65.6,M,,*45
$GPGSA,A,3,22,19,06,17,11,14,,,,,,,9.91,7.15,6.86*05
$GPGSV,4,1,14,05,02,191,,06,70,037,33,11,62,211,10,12,15,319,*79
$GPGSV,4,2,14,13,12,209,,14,31,104,31,15,01,234,,17,24,042,35*70
$GPGSV,4,3,14,19,39,021,36,20,25,169,,21,17,167,20,22,44,085,38*75
$GPGSV,4,4,14,24,39,290,,30,05,155,*7C
$GPGLL,1907.39449,N,07250.19025,E,111722.00,A,A*6C
$GPRMC,111723.00,A,1907.39448,N,07250.19027,E,0.088,,080126,,,A*7A
$GPVTG,,T,,M,0.088,N,0.164,K,A*20
$GPGGA,111723.00,1907.39448,N,07250.19027,E,1,06,7.15,23.0,M,-65.6,M,,*47
$GPGSA,A,3,22,19,06,17,11,14,,,,,,,9.91,7.15,6.86*05
$GPGSV,4,1,14,05,02,191,,06,70,037,33,11,62,211,10,12,15,319,*79
$GPGSV,4,2,14,13,12,209,,14,31,104,31,15,01,234,,17,24,042,35*70
$GPGSV,4,3,14,19,39,021,36,20,25,169,,21,17,167,20,22,44,085,38*75
$GPGSV,4,4,14,24,39,290,,30,05,155,*7C
$GPGLL,1907.39448,N,07250.19027,E,111723.00,A,A*6E
$GPRMC,111724.00,A,1907.39448,N,07250.19029,E,0.025,,080126,,,A*74
$GPVTG,,T,,M,0.025,N,0.046,K,A*26
$GPGGA,111724.00,1907.39448,N,07250.19029,E,1,06,7.15,23.1,M,-65.6,M,,*4F
$GPGSA,A,3,22,19,06,17,11,14,,,,,,,9.91,7.15,6.86*05
$GPGSV,4,1,14,05,02,191,,06,70,037,32,11,62,211,11,12,15,319,*79
$GPGSV,4,2,14,13,12,209,,14,31,104,30,15,01,234,,17,24,042,34*70
$GPGSV,4,3,14,19,39,021,35,20,25,169,,21,17,167,19,22,44,085,37*73
$GPGSV,4,4,14,24,39,290,,30,05,155,*7C
$GPGLL,1907.39448,N,07250.19029,E,111724.00,A,A*67
$GPRMC,111725.00,A,1907.39451,N,07250.19035,E,0.066,,080126,,,A*77
$GPVTG,,T,,M,0.066,N,0.123,K,A*23
$GPGGA,111725.00,1907.39451,N,07250.19035,E,1,06,7.15,23.2,M,-65.6,M,,*48
$GPGSA,A,3,22,19,06,17,11,14,,,,,,,9.91,7.15,6.86*05
$GPGSV,4,1,14,05,02,191,,06,70,037,33,11,62,211,10,12,15,319,*79
$GPGSV,4,2,14,13,12,209,,14,31,104,31,15,01,234,,17,24,042,36*73
$GPGSV,4,3,14,19,39,021,37,20,25,169,,21,17,167,20,22,44,085,39*75
$GPGSV,4,4,14,24,39,290,,30,05,155,*7C
$GPGLL,1907.39451,N,07250.19035,E,111725.00,A,A*63
$GPRMC,111726.00,A,1907.39451,N,07250.19033,E,0.074,,080126,,,A*71
$GPVTG,,T,,M,0.074,N,0.136,K,A*24
$GPGGA,111726.00,1907.39451,N,07250.19033,E,1,05,7.15,23.2,M,-65.6,M,,*4E
$GPGSA,A,3,22,19,06,17,14,,,,,,,,9.91,7.15,6.85*06
$GPGSV,4,1,14,05,02,191,,06,70,037,33,11,62,211,,12,15,319,*78
$GPGSV,4,2,14,13,12,209,,14,31,104,31,15,01,234,,17,24,042,35*70
$GPGSV,4,3,14,19,39,021,36,20,25,169,,21,17,167,19,22,44,085,38*7F
$GPGSV,4,4,14,24,39,290,,30,05,155,*7C
$GPGLL,1907.39451,N,07250.19033,E,111726.00,A,A*66
$GPRMC,111727.00,A,1907.39449,N,07250.19032,E,0.038,,080126,,,A*70
$GPVTG,,T,,M,0.038,N,0.070,K,A*2F
$GPGGA,111727.00,1907.39449,N,07250.19032,E,1,05,7.15,23.2,M,-65.6,M,,*47
$GPGSA,A,3,22,19,06,17,14,,,,,,,,9.91,7.15,6.85*06
$GPGSV,4,1,14,05,02,191,,06,70,037,33,11,62,211,,12,15,319,*78
$GPGSV,4,2,14,13,12,209,,14,31,104,31,15,01,234,,17,24,042,35*70
