eJļæ½ļæ½Ń¹esp32: SPI Modeļæ½ets Jul 29 2019 12:21:46

rst:0x1 (POWERON_RESET),boot:0x13 (SPI_FAST_FLASH_BOOT)
configsip: 0, SPIWP:0xee
clk_drv:0x00,q_drv:0x00,d_drv:0x00,cs0_drv:0x00,hd_drv:0x00,wp_drv:0x00
mode:DIO, clock div:2
load:0x3fff0030,len:6276
load:0x40078000,len:15748
load:0x40080400,len:4
ho 8 tail 4 room 4
load:0x40080404,len:3860
entry 0x4008063c
[0;32mI (31) boot: ESP-IDF v5.4.1-dirty 2nd stage bootloader[0m
[0;32mI (31) boot: compile time Jan  8 2026 14:39:13[0m
[0;32mI (31) boot: Multicore bootloader[0m
[0;32mI (33) boot: chip revision: v3.1[0m
[0;32mI (36) boot.esp32: SPI Speed      : 40MHz[0m
[0;32mI (40) boot.esp32: SPI Mode       : DIO[0m
[0;32mI (43) boot.esp32: SPI Flash Size : 2MB[0m
[0;32mI (47) boot: Enabling RNG early entropy source...[0m
[0;32mI (51) boot: Partition Table:[0m
[0;32mI (54) boot: ## Label            Usage          Type ST Offset   Length[0m
[0;32mI (60) boot:  0 nvs              WiFi data        01 02 00009000 00006000[0m
[0;32mI (67) boot:  1 phy_init         RF data          01 01 0000f000 00001000[0m
[0;32mI (73) boot:  2 factory          factory app      00 00 00010000 00100000[0m
[0;32mI (80) boot: End of partition table[0m
[0;32mI (83) esp_image: segment 0: paddr=00010020 vaddr=3f400020 size=0ad48h ( 44360) map[0m
[0;32mI (106) esp_image: segment 1: paddr=0001ad70 vaddr=3ff80000 size=0001ch (    28) load[0m
[0;32mI (106) esp_image: segment 2: paddr=0001ad94 vaddr=3ffb0000 size=02314h (  8980) load[0m
[0;32mI (113) esp_image: segment 3: paddr=0001d0b0 vaddr=40080000 size=02f68h ( 12136) load[0m
[0;32mI (122) esp_image: segment 4: paddr=00020020 vaddr=400d0020 size=17270h ( 94832) map[0m
[0;32mI (157) esp_image: segment 5: paddr=00037298 vaddr=40082f68 size=0aca8h ( 44200) load[0m
[0;32mI (181) boot: Loaded app from partition at offset 0x10000[0m
[0;32mI (181) boot: Disabling RNG early entropy source...[0m
[0;32mI (191) cpu_start: Multicore app[0m
[0;32mI (200) cpu_start: Pro cpu start user code[0m
[0;32mI (200) cpu_start: cpu freq: 160000000 Hz[0m
[0;32mI (200) app_init: Application information:[0m
[0;32mI (200) app_init: Project name:     app-template[0m
[0;32mI (204) app_init: App version:      1[0m
[0;32mI (208) app_init: Compile time:     Jan  8 2026 14:38:04[0m
[0;32mI (213) app_init: ELF file SHA256:  96e63a8f1...[0m
[0;32mI (217) app_init: ESP-IDF:          v5.4.1-dirty[0m
[0;32mI (221) efuse_init: Min chip rev:     v0.0[0m
[0;32mI (225) efuse_init: Max chip rev:     v3.99 [0m
[0;32mI (229) efuse_init: Chip rev:         v3.1[0m
[0;32mI (233) heap_init: Initializing. RAM available for dynamic allocation:[0m
[0;32mI (239) heap_init: At 3FFAE6E0 len 00001920 (6 KiB): DRAM[0m
[0;32mI (244) heap_init: At 3FFB30D8 len 0002CF28 (179 KiB): DRAM[0m
[0;32mI (250) heap_init: At 3FFE0440 len 00003AE0 (14 KiB): D/IRAM[0m
[0;32mI (255) heap_init: At 3FFE4350 len 0001BCB0 (111 KiB): D/IRAM[0m
[0;32mI (261) heap_init: At 4008DC10 len 000123F0 (72 KiB): IRAM[0m
[0;32mI (267) spi_flash: detected chip: generic[0m
[0;32mI (269) spi_flash: flash io: dio[0m
[0;33mW (272) spi_flash: Detected size(4096k) larger than the size in the binary image header(2048k). Using the size in the binary image header.[0m
[0;32mI (285) main_task: Started on CPU0[0m
[0;32mI (295) main_task: Calling app_main()[0m
[0;32mI (295) UART_RX: UART Initialized[0m
[0;32mI (295) GPS: GPS Initialized[0m


RAW: $GPRMC,144727.00,A,1913.43359,N,07308.47198,E,0.217,,310126,,,A*7D
LAT: 19Ā° 13.43359' N
LON: 73Ā° 8.47198' E
CITY: Kalyan East

RAW: $GPVTG,,T,,M,0.217,N,0.401,K,A*22
RAW: $GPGGA,144727.00,1913.43359,N,07308.47198,E,1,05,6.26,-10.4,M,-65.5,M,,*66
RAW: $GPGSA,A,3,23,12,13,25,15,,,,,,,,10.70,6.26,8.67*3C
RAW: $GPGSV,4,1,13,05,34,029,,10,06,226,20,11,06,072,,12,20,174,34*73
RAW: $GPGSV,4,2,13,13,31,087,07,15,55,125,28,18,29,308,,21,07,038,*7B
RAW: $GPGSV,4,3,13,23,41,239,29,24,04,159,16,25,41,214,31,26,08,308,*73
RAW: $GPGSV,4,4,13,29,66,004,*44
RAW: $GPGLL,1913.43359,N,07308.47198,E,144727.00,A,A*67
RAW: $GPRMC,144728.00,A,1913.43351,N,07308.47192,E,0.182,,310126,,,A*7F
LAT: 19Ā° 13.43351' N
LON: 73Ā° 8.47192' E
CITY: Kalyan East

RAW: $GPVTG,,T,,M,0.182,N,0.337,K,A*2F
RAW: $GPGGA,144728.00,1913.43351,N,07308.47192,E,1,05,6.26,-10.4,M,-65.5,M,,*6B
RAW: $GPGSA,A,3,23,12,13,25,15,,,,,,,,10.70,6.26,8.67*3C
RAW: $GPGSV,4,1,13,05,34,029,,10,06,226,20,11,06,072,,12,20,174,34*73
RAW: $GPGSV,4,2,13,13,31,087,07,15,55,125,29,18,29,308,,21,07,038,*7A
RAW: $GPGSV,4,3,13,23,41,239,30,24,04,159,16,25,41,214,32,26,08,308,*78
RAW: $GPGSV,4,4,13,29,66,004,*44
RAW: $GPGLL,1913.43351,N,07308.47192,E,144728.00,A,A*6A
RAW: $GPRMC,144729.00,A,1913.43342,N,07308.47187,E,0.125,,310126,,,A*75
LAT: 19Ā° 13.43342' N
LON: 73Ā° 8.47187' E
CITY: Kalyan East

RAW: $GPVTG,,T,,M,0.125,N,0.232,K,A*26
RAW: $GPGGA,144729.00,1913.43342,N,07308.47187,E,1,05,6.26,-10.2,M,-65.5,M,,*6A
RAW: $GPGSA,A,3,23,12,13,25,15,,,,,,,,10.69,6.26,8.67*34
RAW: $GPGSV,4,1,13,05,34,029,,10,06,226,20,11,06,072,,12,20,174,34*73
RAW: $GPGSV,4,2,13,13,31,087,07,15,55,125,28,18,29,308,,21,07,038,*7B
RAW: $GPGSV,4,3,13,23,41,239,30,24,04,159,16,25,41,214,32,26,08,308,*78
RAW: $GPGSV,4,4,13,29,66,004,*44
RAW: $GPGLL,1913.43342,N,07308.47187,E,144729.00,A,A*6D
RAW: $GPRMC,144730.00,A,1913.43346,N,07308.47188,E,0.086,,310126,,,A*7E
LAT: 19Ā° 13.43346' N
LON: 73Ā° 8.47188' E
CITY: Kalyan East

RAW: $GPVTG,,T,,M,0.086,N,0.160,K,A*2A
RAW: $GPGGA,144730.00,1913.43346,N,07308.47188,E,1,05,6.26,-10.3,M,-65.5,M,,*68
RAW: $GPGSA,A,3,23,12,13,25,15,,,,,,,,10.69,6.26,8.67*34
RAW: $GPGSV,4,1,13,05,34,029,,10,06,226,21,11,06,072,,12,20,174,34*72
RAW: $GPGSV,4,2,13,13,31,087,07,15,55,125,28,18,29,308,,21,07,038,*7B
RAW: $GPGSV,4,3,13,23,41,239,31,24,04,159,16,25,41,214,32,26,08,308,*79
RAW: $GPGSV,4,4,13,29,66,004,*44
RAW: $GPGLL,1913.43346,N,07308.47188,E,144730.00,A,A*6E
RAW: $GPRMC,144731.00,A,1913.43350,N,07308.47191,E,0.203,,310126,,,A*7F
LAT: 19Ā° 13.43350' N
LON: 73Ā° 8.47191' E
CITY: Kalyan East

RAW: $GPVTG,,T,,M,0.203,N,0.376,K,A*20
RAW: $GPGGA,144731.00,1913.43350,N,07308.47191,E,1,04,6.26,-10.4,M,-65.5,M,,*60
RAW: $GPGSA,A,3,23,12,25,15,,,,,,,,,10.69,6.26,8.67*36
RAW: $GPGSV,4,1,13,05,34,029,,10,06,226,20,11,06,072,,12,20,174,34*73
RAW: $GPGSV,4,2,13,13,31,087,,15,55,125,29,18,29,308,,21,07,038,*7D
RAW: $GPGSV,4,3,13,23,41,239,31,24,04,159,16,25,41,214,32,26,08,308,*79
RAW: $GPGSV,4,4,13,29,66,004,*44
RAW: $GPGLL,1913.43350,N,07308.47191,E,144731.00,A,A*60
RAW: $GPRMC,144732.00,A,1913.43349,N,07308.47188,E,0.171,,310126,,,A*7A
LAT: 19Ā° 13.43349' N
LON: 73Ā° 8.47188' E
CITY: Kalyan East

RAW: $GPVTG,,T,,M,0.171,N,0.317,K,A*21
RAW: $GPGGA,144732.00,1913.43349,N,07308.47188,E,1,04,6.25,-10.5,M,-65.5,M,,*61
RAW: $GPGSA,A,3,23,12,25,15,,,,,,,,,10.69,6.25,8.66*34
RAW: $GPGSV,4,1,13,05,34,029,,10,06,226,19,11,06,072,,12,20,174,35*78
RAW: $GPGSV,4,2,13,13,31,087,,15,55,125,28,18,29,308,,21,07,038,*7C
RAW: $GPGSV,4,3,13,23,41,239,29,24,04,159,15,25,41,214,31,26,08,308,*70
RAW: $GPGSV,4,4,13,29,66,004,*44
RAW: $GPGLL,1913.43349,N,07308.47188,E,144732.00,A,A*63
RAW: $GPRMC,144733.00,A,1913.43356,N,07308.47187,E,0.110,,310126,,,A*7D
LAT: 19Ā° 13.43356' N
LON: 73Ā° 8.47187' E
CITY: Kalyan East

RAW: $GPVTG,,T,,M,0.110,N,0.204,K,A*25
RAW: $GPGGA,144733.00,1913.43356,N,07308.47187,E,1,04,6.25,-10.8,M,-65.5,M,,*6C
RAW: $GPGSA,A,3,23,12,25,15,,,,,,,,,10.68,6.25,8.66*35
RAW: $GPGSV,4,1,13,05,33,029,,10,06,226,21,11,06,072,,12,20,174,34*75
RAW: $GPGSV,4,2,13,13,31,087,,15,55,125,28,18,29,308,,21,07,038,*7C
RAW: $GPGSV,4,3,13,23,41,239,30,24,04,159,16,25,41,214,32,26,08,308,*78
RAW: $GPGSV,4,4,13,29,66,004,*44
RAW: $GPGLL,1913.43356,N,07308.47187,E,144733.00,A,A*63
RAW: $GPRMC,144734.00,A,1913.43365,N,07308.47188,E,0.216,,310126,,,A*70
LAT: 19Ā° 13.43365' N
LON: 73Ā° 8.47188' E
CITY: Kalyan East

RAW: $GPVTG,,T,,M,0.216,N,0.400,K,A*22
RAW: $GPGGA,144734.00,1913.43365,N,07308.47188,E,1,04,6.25,-10.9,M,-65.5,M,,*65
RAW: $GPGSA,A,3,23,12,25,15,,,,,,,,,10.68,6.25,8.66*35
RAW: $GPGSV,4,1,13,05,33,029,,10,06,226,21,11,06,072,,12,20,174,34*75
RAW: $GPGSV,4,2,13,13,31,087,,15,55,125,28,18,29,308,,21,07,038,*7C
RAW: $GPGSV,4,3,13,23,41,239,30,24,04,159,16,25,41,214,32,26,08,308,*78
RAW: $GPGSV,4,4,13,29,66,004,*44
RAW: $GPGLL,1913.43365,N,07308.47188,E,144734.00,A,A*6B
RAW: $GPRMC,144735.00,A,1913.43366,N,07308.47188,E,0.282,,310126,,,A*7F
LAT: 19Ā° 13.43366' N
LON: 73Ā° 8.47188' E
CITY: Kalyan East

RAW: $GPVTG,,T,,M,0.282,N,0.523,K,A*2F
RAW: $GPGGA,144735.00,1913.43366,N,07308.47188,E,1,04,6.25,-11.0,M,-65.5,M,,*6F
RAW: $GPGSA,A,3,23,12,25,15,,,,,,,,,10.68,6.25,8.66*35
RAW: $GPGSV,4,1,13,05,33,029,,10,06,226,21,11,06,072,,12,20,174,37*76
RAW: $GPGSV,4,2,13,13,31,087,,15,55,125,28,18,29,308,,21,07,038,*7C
RAW: $GPGSV,4,3,13,23,41,239,30,24,04,159,16,25,41,214,32,26,08,308,*78
RAW: $GPGSV,4,4,13,29,66,004,*44
RAW: $GPGLL,1913.43366,N,07308.47188,E,144735.00,A,A*69
RAW: $GPRMC,144736.00,A,1913.43364,N,07308.47186,E,0.234,,310126,,,A*7D
LAT: 19Ā° 13.43364' N
LON: 73Ā° 8.47186' E
CITY: Kalyan East

RAW: $GPVTG,,T,,M,0.234,N,0.433,K,A*22
RAW: $GPGGA,144736.00,1913.43364,N,07308.47186,E,1,04,6.25,-11.0,M,-65.5,M,,*60
RAW: $GPGSA,A,3,23,12,25,15,,,,,,,,,10.67,6.25,8.66*3A
RAW: $GPGSV,4,1,13,05,33,029,,10,06,226,21,11,06,072,,12,20,174,35*74
RAW: $GPGSV,4,2,13,13,31,087,,15,55,125,28,18,29,308,,21,07,038,*7C
RAW: $GPGSV,4,3,13,23,41,239,30,24,04,159,17,25,41,214,32,26,08,308,*79
RAW: $GPGSV,4,4,13,29,66,004,*44
RAW: $GPGLL,1913.43364,N,07308.47186,E,144736.00,A,A*66
RAW: $GPRMC,144737.00,A,1913.43360,N,07308.47186,E,0.173,,310126,,,A*78
LAT: 19Ā° 13.43360' N
LON: 73Ā° 8.47186' E
CITY: Kalyan East

RAW: $GPVTG,,T,,M,0.173,N,0.320,K,A*27
RAW: $GPGGA,144737.00,1913.43360,N,07308.47186,E,1,04,6.25,-11.0,M,-65.5,M,,*65
RAW: $GPGSA,A,3,23,12,25,15,,,,,,,,,10.67,6.25,8.65*39
RAW: $GPGSV,4,1,13,05,33,029,,10,06,226,21,11,06,072,,12,20,174,35*74
RAW: $GPGSV,4,2,13,13,31,087,,15,55,125,28,18,29,308,,21,07,038,*7C
RAW: $GPGSV,4,3,13,23,41,239,31,24,04,159,17,25,41,214,32,26,08,308,*78
RAW: $GPGSV,4,4,13,29,66,004,*44
RAW: $GPGLL,1913.43360,N,07308.47186,E,144737.00,A,A*63
RAW: $GPRMC,144738.00,A,1913.43355,N,07308.47187,E,0.082,,310126,,,A*7F
LAT: 19Ā° 13.43355' N
LON: 73Ā° 8.47187' E
CITY: Kalyan East

RAW: $GPVTG,,T,,M,0.082,N,0.151,K,A*2C
RAW: $GPGGA,144738.00,1913.43355,N,07308.47187,E,1,04,6.24,-10.8,M,-65.5,M,,*65
RAW: $GPGSA,A,3,23,12,25,15,,,,,,,,,10.67,6.24,8.65*38
RAW: $GPGSV,4,1,13,05,33,029,,10,06,226,21,11,06,072,,12,20,174,36*77
RAW: $GPGSV,4,2,13,13,31,087,,15,55,125,29,18,29,308,,21,07,038,*7D
RAW: $GPGSV,4,3,13,23,41,239,32,24,04,159,19,25,41,214,33,26,08,308,*74
RAW: $GPGSV,4,4,13,29,66,004,*44
RAW: $GPGLL,1913.43355,N,07308.47187,E,144738.00,A,A*6B
RAW: $GPRMC,144739.00,A,1913.43344,N,07308.47188,E,0.166,,310126,,,A*7A
LAT: 19Ā° 13.43344' N
LON: 73Ā° 8.47188' E
CITY: Kalyan East

RAW: $GPVTG,,T,,M,0.166,N,0.308,K,A*29
RAW: $GPGGA,144739.00,1913.43344,N,07308.47188,E,1,04,6.24,-10.5,M,-65.5,M,,*66
RAW: $GPGSA,A,3,23,12,25,15,,,,,,,,,10.67,6.24,8.65*38
RAW: $GPGSV,4,1,13,05,33,029,,10,06,226,22,11,06,072,,12,20,174,36*74
RAW: $GPGSV,4,2,13,13,31,087,,15,55,125,29,18,29,308,,21,07,038,*7D
RAW: $GPGSV,4,3,13,23,41,239,33,24,04,159,20,25,41,214,33,26,08,308,*7F
RAW: $GPGSV,4,4,13,29,66,004,*44
RAW: $GPGLL,1913.43344,N,07308.47188,E,144739.00,A,A*65
RAW: $GPRMC,144740.00,A,1913.43334,N,07308.47188,E,0.199,,310126,,,A*73
LAT: 19Ā° 13.43334' N
LON: 73Ā° 8.47188' E
CITY: Kalyan East

RAW: $GPVTG,,T,,M,0.199,N,0.369,K,A*2E
RAW: $GPGGA,144740.00,1913.43334,N,07308.47188,E,1,04,6.24,-10.3,M,-65.5,M,,*69
RAW: $GPGSA,A,3,23,12,25,15,,,,,,,,,10.66,6.24,8.65*39
RAW: $GPGSV,4,1,13,05,33,029,,10,06,226,22,11,06,072,,12,20,174,36*74
RAW: $GPGSV,4,2,13,13,31,087,,15,55,125,30,18,29,308,,21,07,038,*75
RAW: $GPGSV,4,3,13,23,41,239,33,24,04,159,21,25,41,214,34,26,08,308,*79
RAW: $GPGSV,4,4,13,29,66,004,*44
RAW: $GPGLL,1913.43334,N,07308.47188,E,144740.00,A,A*6C
RAW: $GPRMC,144741.00,A,1913.43324,N,07308.47187,E,0.041,,310126,,,A*78
LAT: 19Ā° 13.43324' N
LON: 73Ā° 8.47187' E
CITY: Kalyan East

RAW: $GPVTG,,T,,M,0.041,N,0.077,K,A*26
RAW: $GPGGA,144741.00,1913.43324,N,07308.47187,E,1,04,6.24,-10.0,M,-65.5,M,,*65
RAW: $GPGSA,A,3,23,12,25,15,,,,,,,,,10.66,6.24,8.65*39
RAW: $GPGSV,4,1,13,05,33,029,,10,06,226,22,11,06,072,,12,20,174,35*77
RAW: $GPGSV,4,2,13,13,31,086,,15,55,125,29,18,29,308,,21,07,038,*7C
RAW: $GPGSV,4,3,13,23,41,239,32,24,04,159,20,25,41,214,33,26,08,308,*7E
RAW: $GPGSV,4,4,13,29,66,004,*44
RAW: $GPGLL,1913.43324,N,07308.47187,E,144741.00,A,A*63
RAW: $GPRMC,144742.00,A,1913.43314,N,07308.47188,E,0.105,,310126,,,A*76
LAT: 19Ā° 13.43314' N
LON: 73Ā° 8.47188' E
CITY: Kalyan East

RAW: $GPVTG,,T,,M,0.105,N,0.194,K,A*2B
RAW: $GPGGA,144742.00,1913.43314,N,07308.47188,E,1,04,6.24,-9.7,M,-65.5,M,,*55
RAW: $GPGSA,A,3,23,12,25,15,,,,,,,,,10.66,6.24,8.64*38
RAW: $GPGSV,4,1,13,05,33,029,,10,06,226,22,11,06,072,,12,20,174,36*74
RAW: $GPGSV,4,2,13,13,31,086,,15,55,125,29,18,29,308,,21,07,038,*7C
RAW: $GPGSV,4,3,13,23,41,239,33,24,04,159,21,25,41,214,33,26,08,308,*7E
RAW: $GPGSV,4,4,13,29,66,004,*44
RAW: $GPGLL,1913.43314,N,07308.47188,E,144742.00,A,A*6C
RAW: $GPRMC,144743.00,A,1913.43309,N,07308.47194,E,0.039,,310126,,,A*78
LAT: 19Ā° 13.43309' N
LON: 73Ā° 8.47194' E
CITY: Kalyan East

RAW: $GPVTG,,T,,M,0.039,N,0.072,K,A*2C
RAW: $GPGGA,144743.00,1913.43309,N,07308.47194,E,1,04,6.24,-9.4,M,-65.5,M,,*56
RAW: $GPGSA,A,3,23,12,25,15,,,,,,,,,10.66,6.24,8.64*38
RAW: $GPGSV,4,1,13,05,33,029,,10,06,226,22,11,06,072,,12,20,174,36*74
RAW: $GPGSV,4,2,13,13,31,086,,15,55,124,29,18,29,308,,21,07,038,*7D
RAW: $GPGSV,4,3,13,23,41,239,32,24,04,159,20,25,41,214,33,26,08,308,*7E
RAW: $GPGSV,4,4,13,29,66,004,*44
RAW: $GPGLL,1913.43309,N,07308.47194,E,144743.00,A,A*6C
RAW: $GPRMC,144744.00,A,1913.43306,N,07308.47198,E,0.146,,310126,,,A*75
LAT: 19Ā° 13.43306' N
LON: 73Ā° 8.47198' E
CITY: Kalyan East

RAW: $GPVTG,,T,,M,0.146,N,0.271,K,A*24
RAW: $GPGGA,144744.00,1913.43306,N,07308.47198,E,1,04,6.24,-9.1,M,-65.5,M,,*57
RAW: $GPGSA,A,3,23,12,25,15,,,,,,,,,10.65,6.24,8.64*3B
RAW: $GPGSV,4,1,13,05,33,029,,10,06,226,22,11,06,072,,12,20,174,38*7A
RAW: $GPGSV,4,2,13,13,31,086,,15,55,124,29,18,29,308,,21,07,038,*7D
RAW: $GPGSV,4,3,13,23,41,239,32,24,04,159,20,25,41,214,33,26,08,308,*7E
RAW: $GPGSV,4,4,13,29,66,004,*44
RAW: $GPGLL,1913.43306,N,07308.47198,E,144744.00,A,A*68
RAW: $GPRMC,144745.00,A,1913.43288,N,07308.47189,E,0.119,,310126,,,A*79
LAT: 19Ā° 13.43288' N
LON: 73Ā° 8.47189' E
CITY: Kalyan East

RAW: $GPVTG,,T,,M,0.119,N,0.221,K,A*2B
RAW: $GPGGA,144745.00,1913.43288,N,07308.47189,E,1,04,6.23,-8.8,M,-65.5,M,,*5E
RAW: $GPGSA,A,3,23,12,25,15,,,,,,,,,10.65,6.23,8.64*3C
RAW: $GPGSV,4,1,13,05,33,029,,10,06,226,21,11,06,072,,12,20,174,35*74
RAW: $GPGSV,4,2,13,13,31,086,,15,55,124,29,18,29,308,,21,07,038,*7D
RAW: $GPGSV,4,3,13,23,41,239,32,24,04,159,20,25,41,214,33,26,08,308,*7E
RAW: $GPGSV,4,4,13,29,66,004,*44
RAW: $GPGLL,1913.43288,N,07308.47189,E,144745.00,A,A*6E
RAW: $GPRMC,144746.00,A,1913.43277,N,07308.47187,E,0.070,,310126,,,A*7A
LAT: 19Ā° 13.43277' N
LON: 73Ā° 8.47187' E
CITY: Kalyan East

RAW: $GPVTG,,T,,M,0.070,N,0.129,K,A*2E
RAW: $GPGGA,144746.00,1913.43277,N,07308.47187,E,1,04,6.23,-8.6,M,-65.5,M,,*5D
RAW: $GPGSA,A,3,23,12,25,15,,,,,,,,,10.65,6.23,8.63*3B
RAW: $GPGSV,4,1,13,05,33,029,,10,06,226,21,11,06,072,,12,20,174,35*74
RAW: $GPGSV,4,2,13,13,31,086,,15,55,124,29,18,29,309,,21,07,038,*7C
RAW: $GPGSV,4,3,13,23,41,239,32,24,04,159,19,25,41,214,32,26,08,308,*75
RAW: $GPGSV,4,4,13,29,66,004,*44
RAW: $GPGLL,1913.43277,N,07308.47187,E,144746.00,A,A*63
RAW: $GPRMC,144747.00,A,1913.43265,N,07308.47187,E,0.053,,310126,,,A*79
LAT: 19Ā° 13.43265' N
LON: 73Ā° 8.47187' E
CITY: Kalyan East

RAW: $GPVTG,,T,,M,0.053,N,0.099,K,A*25
RAW: $GPGGA,144747.00,1913.43265,N,07308.47187,E,1,04,6.23,-8.2,M,-65.5,M,,*5B
RAW: $GPGSA,A,3,23,12,25,15,,,,,,,,,10.65,6.23,8.63*3B
RAW: $GPGSV,4,1,13,05,33,029,,10,06,226,21,11,06,072,,12,20,174,38*79
RAW: $GPGSV,4,2,13,13,31,086,,15,55,124,29,18,29,309,,21,07,038,*7C
RAW: $GPGSV,4,3,13,23,41,239,32,24,04,159,19,25,41,214,33,26,08,308,*74
RAW: $GPGSV,4,4,13,29,66,004,*44
RAW: $GPGLL,1913.43265,N,07308.47187,E,144747.00,A,A*61
RAW: $GPRMC,144748.00,A,1913.43257,N,07308.47186,E,0.099,,310126,,,A*70
LAT: 19Ā° 13.43257' N
LON: 73Ā° 8.47186' E
CITY: Kalyan East

RAW: $GPVTG,,T,,M,0.099,N,0.184,K,A*2E
RAW: $GPGGA,144748.00,1913.43257,N,07308.47186,E,1,04,6.23,-8.0,M,-65.5,M,,*56
RAW: $GPGSA,A,3,23,12,25,15,,,,,,,,,10.64,6.23,8.63*3A
RAW: $GPGSV,4,1,13,05,33,029,,10,06,226,20,11,06,072,,12,20,174,37*77
RAW: $GPGSV,4,2,13,13,31,086,,15,55,124,29,18,29,309,,21,07,038,*7C
RAW: $GPGSV,4,3,13,23,41,239,32,24,04,159,19,25,41,214,33,26,08,308,*74
RAW: $GPGSV,4,4,13,29,66,004,*44
RAW: $GPGLL,1913.43257,N,07308.47186,E,144748.00,A,A*6E
RAW: $GPRMC,144749.00,A,1913.43247,N,07308.47185,E,0.115,,310126,,,A*76
LAT: 19Ā° 13.43247' N
LON: 73Ā° 8.47185' E
CITY: Kalyan East

RAW: $GPVTG,,T,,M,0.115,N,0.213,K,A*26
RAW: $GPGGA,144749.00,1913.43247,N,07308.47185,E,1,04,6.23,-7.8,M,-65.5,M,,*52
RAW: $GPGSA,A,3,23,12,25,15,,,,,,,,,10.64,6.23,8.63*3A
RAW: $GPGSV,4,1,13,05,33,029,,10,06,226,21,11,06,072,,12,20,174,36*77
RAW: $GPGSV,4,2,13,13,31,086,,15,55,124,29,18,29,309,,21,06,039,*7C
RAW: $GPGSV,4,3,13,23,41,239,32,24,04,159,18,25,41,214,33,26,08,308,*75
RAW: $GPGSV,4,4,13,29,66,004,*44
RAW: $GPGLL,1913.43247,N,07308.47185,E,144749.00,A,A*6D
RAW: $GPRMC,144750.00,A,1913.43237,N,07308.47186,E,0.026,,310126,,,A*7B
LAT: 19Ā° 13.43237' N
LON: 73Ā° 8.47186' E
CITY: Kalyan East

RAW: $GPVTG,,T,,M,0.026,N,0.049,K,A*2A
RAW: $GPGGA,144750.00,1913.43237,N,07308.47186,E,1,04,6.23,-7.6,M,-65.5,M,,*50
RAW: $GPGSA,A,3,23,12,25,15,,,,,,,,,10.64,6.23,8.63*3A
RAW: $GPGSV,4,1,13,05,33,029,,10,06,226,21,11,06,072,,12,20,174,36*77
RAW: $GPGSV,4,2,13,13,31,086,,15,55,124,30,18,29,309,,21,06,039,*74
RAW: $GPGSV,4,3,13,23,41,239,33,24,04,159,19,25,41,214,33,26,08,308,*75
RAW: $GPGSV,4,4,13,29,66,004,*44
RAW: $GPGLL,1913.43237,N,07308.47186,E,144750.00,A,A*61
RAW: $GPRMC,144751.00,A,1913.43231,N,07308.47192,E,0.042,,310126,,,A*7B
LAT: 19Ā° 13.43231' N
LON: 73Ā° 8.47192' E
CITY: Kalyan East

RAW: $GPVTG,,T,,M,0.042,N,0.078,K,A*2A
RAW: $GPGGA,144751.00,1913.43231,N,07308.47192,E,1,04,6.22,-7.2,M,-65.5,M,,*57
RAW: $GPGSA,A,3,23,12,25,15,,,,,,,,,10.64,6.22,8.62*3A
RAW: $GPGSV,4,1,13,05,33,029,,10,06,226,22,11,06,072,,12,20,174,36*74
RAW: $GPGSV,4,2,13,13,31,086,,15,55,124,29,18,29,309,,21,06,039,*7C
RAW: $GPGSV,4,3,13,23,41,240,32,24,04,159,18,25,41,214,32,26,08,308,*7A
RAW: $GPGSV,4,4,13,29,66,004,*44
RAW: $GPGLL,1913.43231,N,07308.47192,E,144751.00,A,A*63
RAW: $GPRMC,144752.00,A,1913.43231,N,07308.47197,E,0.220,,310126,,,A*7B
LAT: 19Ā° 13.43231' N
LON: 73Ā° 8.47197' E
CITY: Kalyan East

RAW: $GPVTG,,T,,M,0.220,N,0.408,K,A*2F
RAW: $GPGGA,144752.00,1913.43231,N,07308.47197,E,1,04,6.22,-7.0,M,-65.5,M,,*53
RAW: $GPGSA,A,3,23,12,25,15,,,,,,,,,10.63,6.22,8.62*3D
RAW: $GPGSV,4,1,13,05,33,029,,10,06,226,21,11,06,072,,12,20,174,35*74
RAW: $GPGSV,4,2,13,13,31,086,,15,55,124,28,18,29,309,,21,06,039,*7D
RAW: $GPGSV,4,3,13,23,41,240,32,24,04,158,18,25,41,214,32,26,08,308,*7B
RAW: $GPGSV,4,4,13,29,66,004,*44
RAW: $GPGLL,1913.43231,N,07308.47197,E,144752.00,A,A*65
RAW: $GPRMC,144753.00,A,1913.43225,N,07308.47197,E,0.359,,310126,,,A*70
LAT: 19Ā° 13.43225' N
LON: 73Ā° 8.47197' E
CITY: Kalyan East

RAW: $GPVTG,,T,,M,0.359,N,0.664,K,A*28
RAW: $GPGGA,144753.00,1913.43225,N,07308.47197,E,1,04,6.22,-6.7,M,-65.5,M,,*51
RAW: $GPGSA,A,3,23,12,25,15,,,,,,,,,10.63,6.22,8.62*3D
RAW: $GPGSV,4,1,13,05,33,029,,10,06,226,22,11,06,072,,12,20,174,36*74
RAW: $GPGSV,4,2,13,13,31,086,,15,55,124,29,18,29,309,,21,06,039,*7C
RAW: $GPGSV,4,3,13,23,41,240,32,24,04,158,17,25,40,214,32,26,08,308,*75
RAW: $GPGSV,4,4,13,29,66,004,*44
RAW: $GPGLL,1913.43225,N,07308.47197,E,144753.00,A,A*61
RAW: $GPRMC,144754.00,A,1913.43217,N,07308.47194,E,0.250,,310126,,,A*7D
LAT: 19Ā° 13.43217' N
LON: 73Ā° 8.47194' E
CITY: Kalyan East

RAW: $GPVTG,,T,,M,0.250,N,0.463,K,A*25
RAW: $GPGGA,144754.00,1913.43217,N,07308.47194,E,1,04,6.22,-6.6,M,-65.5,M,,*55
RAW: $GPGSA,A,3,23,12,25,15,,,,,,,,,10.63,6.22,8.62*3D
RAW: $GPGSV,4,1,13,05,33,029,,10,06,226,22,11,06,072,,12,20,174,36*74
RAW: $GPGSV,4,2,13,13,31,086,,15,55,124,29,18,29,309,,21,06,039,*7C
RAW: $GPGSV,4,3,13,23,41,240,32,24,04,158,17,25,40,214,32,26,08,307,*7A
RAW: $GPGSV,4,4,13,29,66,004,*44
RAW: $GPGLL,1913.43217,N,07308.47194,E,144754.00,A,A*64
RAW: $GPRMC,144755.00,A,1913.43207,N,07308.47190,E,0.080,,310126,,,A*76
LAT: 19Ā° 13.43207' N
LON: 73Ā° 8.47190' E
CITY: Kalyan East

RAW: $GPVTG,,T,,M,0.080,N,0.149,K,A*27
RAW: $GPGGA,144755.00,1913.43207,N,07308.47190,E,1,04,6.22,-6.4,M,-65.5,M,,*53
RAW: $GPGSA,A,3,23,12,25,15,,,,,,,,,10.63,6.22,8.62*3D
RAW: $GPGSV,4,1,13,05,33,029,,10,06,226,21,11,06,072,,12,20,174,35*74
RAW: $GPGSV,4,2,13,13,31,086,,15,55,124,29,18,29,309,,21,06,039,*7C
RAW: $GPGSV,4,3,13,23,41,240,31,24,04,158,16,25,40,214,32,26,08,307,*78
RAW: $GPGSV,4,4,13,29,66,004,*44
RAW: $GPGLL,1913.43207,N,07308.47190,E,144755.00,A,A*60
RAW: $GPRMC,144756.00,A,1913.43203,N,07308.47191,E,0.153,,310126,,,A*7F
LAT: 19Ā° 13.43203' N
LON: 73Ā° 8.47191' E
CITY: Kalyan East

RAW: $GPVTG,,T,,M,0.153,N,0.284,K,A*2A
RAW: $GPGGA,144756.00,1913.43203,N,07308.47191,E,1,04,6.22,-6.2,M,-65.5,M,,*53
RAW: $GPGSA,A,3,23,12,25,15,,,,,,,,,10.62,6.22,8.61*3F
RAW: $GPGSV,4,1,13,05,33,029,,10,06,226,20,11,06,072,,12,20,174,34*74
RAW: $GPGSV,4,2,13,13,31,086,,15,55,124,28,18,29,309,,21,06,039,*7D
RAW: $GPGSV,4,3,13,23,41,240,31,24,04,158,15,25,40,214,31,26,08,307,*78
RAW: $GPGSV,4,4,13,29,66,004,*44
RAW: $GPGLL,1913.43203,N,07308.47191,E,144756.00,A,A*66
RAW: $GPRMC,144757.00,A,1913.43194,N,07308.47190,E,0.131,,310126,,,A*76
LAT: 19Ā° 13.43194' N
LON: 73Ā° 8.47190' E
CITY: Kalyan East

RAW: $GPVTG,,T,,M,0.131,N,0.242,K,A*24
RAW: $GPGGA,144757.00,1913.43194,N,07308.47190,E,1,04,6.22,-6.1,M,-65.5,M,,*5D
RAW: $GPGSA,A,3,23,12,25,15,,,,,,,,,10.62,6.22,8.61*3F
RAW: $GPGSV,4,1,13,05,33,029,,10,06,226,21,11,06,072,,12,20,174,35*74
RAW: $GPGSV,4,2,13,13,31,086,,15,55,124,29,18,29,309,,21,06,039,*7C
RAW: $GPGSV,4,3,13,23,41,240,32,24,04,158,16,25,40,214,32,26,08,307,*7B
RAW: $GPGSV,4,4,13,29,67,005,*44
RAW: $GPGLL,1913.43194,N,07308.47190,E,144757.00,A,A*6B
RAW: $GPRMC,144758.00,A,1913.43182,N,07308.47187,E,0.107,,310126,,,A*7D
LAT: 19Ā° 13.43182' N
LON: 73Ā° 8.47187' E
CITY: Kalyan East

RAW: $GPVTG,,T,,M,0.107,N,0.198,K,A*25
RAW: $GPGGA,144758.00,1913.43182,N,07308.47187,E,1,04,6.21,-5.8,M,-65.5,M,,*5A
RAW: $GPGSA,A,3,23,12,25,15,,,,,,,,,10.62,6.21,8.61*3C
RAW: $GPGSV,4,1,13,05,33,029,,10,06,226,21,11,06,072,,12,20,174,35*74
RAW: $GPGSV,4,2,13,13,31,086,,15,55,124,29,18,29,309,,21,06,039,*7C
RAW: $GPGSV,4,3,13,23,41,240,32,24,04,158,16,25,40,214,32,26,08,307,*7B
RAW: $GPGSV,4,4,13,29,67,005,*44
RAW: $GPGLL,1913.43182,N,07308.47187,E,144758.00,A,A*65
RAW: $GPRMC,144759.00,A,1913.43169,N,07308.47185,E,0.052,,310126,,,A*7A
LAT: 19Ā° 13.43169' N
LON: 73Ā° 8.47185' E
CITY: Kalyan East

RAW: $GPVTG,,T,,M,0.052,N,0.097,K,A*2A
RAW: $GPGGA,144759.00,1913.43169,N,07308.47185,E,1,04,6.21,-5.5,M,-65.5,M,,*51
RAW: $GPGSA,A,3,23,12,25,15,,,,,,,,,10.62,6.21,8.61*3C
RAW: $GPGSV,4,1,13,05,33,029,,10,06,226,21,11,06,072,,12,20,174,36*77
RAW: $GPGSV,4,2,13,13,31,086,,15,55,124,29,18,29,309,,21,06,039,*7C
RAW: $GPGSV,4,3,13,23,41,240,32,24,04,158,16,25,40,214,33,26,08,307,*7A
RAW: $GPGSV,4,4,13,29,67,005,*44
RAW: $GPGLL,1913.43169,N,07308.47185,E,144759.00,A,A*63
RAW: $GPRMC,144800.00,A,1913.43152,N,07308.47183,E,0.154,,310126,,,A*70
LAT: 19Ā° 13.43152' N
LON: 73Ā° 8.47183' E
CITY: Kalyan East

RAW: $GPVTG,,T,,M,0.154,N,0.285,K,A*2C
RAW: $GPGGA,144800.00,1913.43152,N,07308.47183,E,1,04,6.21,-5.2,M,-65.5,M,,*5B
RAW: $GPGSA,A,3,23,12,25,15,,,,,,,,,10.61,6.21,8.61*3F
RAW: $GPGSV,4,1,13,05,33,029,,10,06,226,22,11,06,072,,12,20,174,36*74
RAW: $GPGSV,4,2,13,13,31,086,,15,55,124,30,18,29,309,,21,06,039,*74
RAW: $GPGSV,4,3,13,23,41,240,33,24,04,158,17,25,40,214,33,26,08,307,*7A
RAW: $GPGSV,4,4,13,29,67,005,*44
RAW: $GPGLL,1913.43152,N,07308.47183,E,144800.00,A,A*6E
RAW: $GPRMC,144801.00,A,1913.43145,N,07308.47184,E,0.019,,310126,,,A*78
LAT: 19Ā° 13.43145' N
LON: 73Ā° 8.47184' E
CITY: Kalyan East

RAW: $GPVTG,,T,,M,0.019,N,0.036,K,A*2E
RAW: $GPGGA,144801.00,1913.43145,N,07308.47184,E,1,04,6.21,-5.0,M,-65.5,M,,*59
RAW: $GPGSA,A,3,23,12,25,15,,,,,,,,,10.61,6.21,8.60*3E
RAW: $GPGSV,4,1,13,05,33,029,,10,06,226,22,11,06,072,,12,20,174,35*77
RAW: $GPGSV,4,2,13,13,31,086,,15,55,124,29,18,29,309,,21,06,039,*7C
RAW: $GPGSV,4,3,13,23,41,240,32,24,04,158,16,25,40,214,32,26,08,307,*7B
RAW: $GPGSV,4,4,13,29,67,005,*44
RAW: $GPGLL,1913.43145,N,07308.47184,E,144801.00,A,A*6E
RAW: $GPRMC,144802.00,A,1913.43129,N,07308.47180,E,0.062,,310126,,,A*79
LAT: 19Ā° 13.43129' N
LON: 73Ā° 8.47180' E
CITY: Kalyan East

RAW: $GPVTG,,T,,M,0.062,N,0.116,K,A*21
RAW: $GPGGA,144802.00,1913.43129,N,07308.47180,E,1,04,6.21,-4.6,M,-65.5,M,,*53
RAW: $GPGSA,A,3,23,12,25,15,,,,,,,,,10.61,6.21,8.60*3E
RAW: $GPGSV,4,1,13,05,33,029,,10,06,226,23,11,06,072,,12,20,174,37*74
RAW: $GPGSV,4,2,13,13,31,086,,15,55,124,30,18,29,309,,21,06,039,*74
RAW: $GPGSV,4,3,13,23,41,240,33,24,04,158,17,25,40,214,33,26,08,307,*7A
RAW: $GPGSV,4,4,13,29,67,005,*44
RAW: $GPGLL,1913.43129,N,07308.47180,E,144802.00,A,A*63
RAW: $GPRMC,144803.00,A,1913.43108,N,07308.47177,E,0.020,,310126,,,A*75
LAT: 19Ā° 13.43108' N
LON: 73Ā° 8.47177' E
CITY: Kalyan East

RAW: $GPVTG,,T,,M,0.020,N,0.037,K,A*25
RAW: $GPGGA,144803.00,1913.43108,N,07308.47177,E,1,04,6.21,-4.1,M,-65.5,M,,*5E
RAW: $GPGSA,A,3,23,12,25,15,,,,,,,,,10.61,6.21,8.60*3E
RAW: $GPGSV,4,1,13,05,33,029,,10,06,226,23,11,06,072,,12,20,174,37*74
RAW: $GPGSV,4,2,13,13,31,086,,15,55,124,30,18,29,309,,21,06,039,*74
RAW: $GPGSV,4,3,13,23,41,240,33,24,04,158,18,25,40,214,35,26,08,307,*73
RAW: $GPGSV,4,4,13,29,67,005,*44
RAW: $GPGLL,1913.43108,N,07308.47177,E,144803.00,A,A*69
RAW: $GPRMC,144804.00,A,1913.43094,N,07308.47181,E,0.029,,310126,,,A*76
LAT: 19Ā° 13.43094' N
LON: 73Ā° 8.47181' E
CITY: Kalyan East

RAW: $GPVTG,,T,,M,0.029,N,0.054,K,A*29
RAW: $GPGGA,144804.00,1913.43094,N,07308.47181,E,1,05,6.21,-3.5,M,-65.5,M,,*56
RAW: $GPGSA,A,3,23,12,13,25,15,,,,,,,,10.60,6.21,8.60*3D
RAW: $GPGSV,4,1,13,05,33,029,,10,06,226,24,11,06,072,,12,20,174,36*72
RAW: $GPGSV,4,2,13,13,31,086,12,15,55,124,31,18,29,309,,21,06,039,*76
RAW: $GPGSV,4,3,13,23,41,240,34,24,04,158,19,25,40,214,33,26,08,307,*73
RAW: $GPGSV,4,4,13,29,67,005,*44
RAW: $GPGLL,1913.43094,N,07308.47181,E,144804.00,A,A*63
RAW: $GPRMC,144805.00,A,1913.43077,N,07308.47181,E,0.088,,310126,,,A*71
LAT: 19Ā° 13.43077' N
LON: 73Ā° 8.47181' E
CITY: Kalyan East

RAW: $GPVTG,,T,,M,0.088,N,0.164,K,A*20
RAW: $GPGGA,144805.00,1913.43077,N,07308.47181,E,1,05,6.20,-3.0,M,-65.5,M,,*5E
RAW: $GPGSA,A,3,23,12,13,25,15,,,,,,,,10.60,6.20,8.60*3C
RAW: $GPGSV,4,1,13,05,33,029,,10,06,226,23,11,06,072,,12,20,174,35*76
RAW: $GPGSV,4,2,13,13,31,086,12,15,55,124,30,18,29,309,,21,06,039,*77
RAW: $GPGSV,4,3,13,23,41,240,33,24,04,158,20,25,40,214,33,26,08,307,*7E
RAW: $GPGSV,4,4,13,29,67,005,*44
RAW: $GPGLL,1913.43077,N,07308.47181,E,144805.00,A,A*6F
RAW: $GPRMC,144806.00,A,1913.43059,N,07308.47181,E,0.037,,310126,,,A*7A
LAT: 19Ā° 13.43059' N
LON: 73Ā° 8.47181' E
CITY: Kalyan East

RAW: $GPVTG,,T,,M,0.037,N,0.069,K,A*28
RAW: $GPGGA,144806.00,1913.43059,N,07308.47181,E,1,05,6.20,-2.5,M,-65.5,M,,*55
RAW: $GPGSA,A,3,23,12,13,25,15,,,,,,,,10.60,6.20,8.59*36
RAW: $GPGSV,4,1,13,05,33,029,,10,06,226,23,11,06,072,,12,20,174,36*75
RAW: $GPGSV,4,2,13,13,31,086,11,15,55,124,30,18,29,309,,21,06,039,*74
RAW: $GPGSV,4,3,13,23,41,240,33,24,04,158,19,25,40,214,33,26,08,307,*74
RAW: $GPGSV,4,4,13,29,67,005,*44
RAW: $GPGLL,1913.43059,N,07308.47181,E,144806.00,A,A*60
RAW: $GPRMC,144807.00,A,1913.43043,N,07308.47182,E,0.055,,310126,,,A*77
LAT: 19Ā° 13.43043' N
LON: 73Ā° 8.47182' E
CITY: Kalyan East

RAW: $GPVTG,,T,,M,0.055,N,0.102,K,A*20
RAW: $GPGGA,144807.00,1913.43043,N,07308.47182,E,1,05,6.20,-1.9,M,-65.5,M,,*53
RAW: $GPGSA,A,3,23,12,13,25,15,,,,,,,,10.59,6.20,8.59*3C
RAW: $GPGSV,4,1,13,05,33,029,,10,06,226,23,11,06,072,,12,20,174,36*75
RAW: $GPGSV,4,2,13,13,31,086,14,15,55,124,30,18,29,309,,21,06,039,*71
RAW: $GPGSV,4,3,13,23,41,240,33,24,04,158,19,25,40,214,33,26,08,307,*74
RAW: $GPGSV,4,4,13,29,67,005,*44
RAW: $GPGLL,1913.43043,N,07308.47182,E,144807.00,A,A*69
RAW: $GPRMC,144808.00,A,1913.42912,N,07308.47162,E,0.079,,310126,,,A*74
LAT: 19Ā° 13.42912' N
LON: 73Ā° 8.47162' E
CITY: Kalyan East

RAW: $GPVTG,,T,,M,0.079,N,0.147,K,A*2F
RAW: $GPGGA,144808.00,1913.42912,N,07308.47162,E,1,05,2.14,1.0,M,-65.5,M,,*79
RAW: $GPGSA,A,3,23,12,13,25,15,,,,,,,,3.99,2.14,3.36*03
RAW: $GPGSV,4,1,13,05,33,029,,10,06,226,23,11,06,072,,12,20,174,36*75
RAW: $GPGSV,4,2,13,13,31,086,14,15,55,124,30,18,29,309,,21,06,039,*71
RAW: $GPGSV,4,3,13,23,41,240,34,24,04,158,20,25,40,214,33,26,08,307,*79
RAW: $GPGSV,4,4,13,29,67,005,*44
RAW: $GPGLL,1913.42912,N,07308.47162,E,144808.00,A,A*64
RAW: $GPRMC,144809.00,A,1913.42830,N,07308.47148,E,0.170,,310126,,,A*74
LAT: 19Ā° 13.42830' N
LON: 73Ā° 8.47148' E
CITY: Kalyan East

RAW: $GPVTG,,T,,M,0.170,N,0.315,K,A*22
RAW: $GPGGA,144809.00,1913.42830,N,07308.47148,E,1,05,2.14,2.9,M,-65.5,M,,*7B
RAW: $GPGSA,A,3,23,12,13,25,15,,,,,,,,3.99,2.14,3.36*03
RAW: $GPGSV,4,1,13,05,33,029,,10,06,226,23,11,06,072,,12,20,174,37*74
RAW: $GPGSV,4,2,13,13,31,086,14,15,55,124,30,18,29,309,,21,06,039,*71
RAW: $GPGSV,4,3,13,23,41,240,34,24,04,158,20,25,40,214,33,26,08,307,*79
RAW: $GPGSV,4,4,13,29,67,005,*44
RAW: $GPGLL,1913.42830,N,07308.47148,E,144809.00,A,A*6C
RAW: $GPRMC,144810.00,A,1913.42755,N,07308.47138,E,0.056,,310126,,,A*72
LAT: 19Ā° 13.42755' N
LON: 73Ā° 8.47138' E
CITY: Kalyan East

RAW: $GPVTG,,T,,M,0.056,N,0.104,K,A*25
RAW: $GPGGA,144810.00,1913.42755,N,07308.47138,E,1,05,2.14,4.6,M,-65.5,M,,*71
RAW: $GPGSA,A,3,23,12,13,25,15,,,,,,,,3.98,2.14,3.36*02
RAW: $GPGSV,4,1,13,05,33,029,,10,06,226,23,11,06,072,,12,20,174,37*74
RAW: $GPGSV,4,2,13,13,31,086,14,15,55,124,30,18,29,309,,21,06,039,*71
RAW: $GPGSV,4,3,13,23,41,240,34,24,04,158,21,25,40,214,34,26,08,307,*7F
RAW: $GPGSV,4,4,13,29,67,005,06*42
RAW: $GPGLL,1913.42755,N,07308.47138,E,144810.00,A,A*6F
RAW: $GPRMC,144811.00,A,1913.42617,N,07308.47114,E,0.170,,310126,,,A*7F
LAT: 19Ā° 13.42617' N
LON: 73Ā° 8.47114' E
CITY: Kalyan East

RAW: $GPVTG,,T,,M,0.170,N,0.315,K,A*22
RAW: $GPGGA,144811.00,1913.42617,N,07308.47114,E,1,05,2.14,7.7,M,-65.5,M,,*7B
RAW: $GPGSA,A,3,23,12,13,25,15,,,,,,,,3.98,2.14,3.36*02
RAW: $GPGSV,4,1,13,05,33,029,,10,06,226,23,11,06,072,,12,20,174,36*75
RAW: $GPGSV,4,2,13,13,31,086,15,15,55,124,29,18,29,309,,21,06,039,*78
RAW: $GPGSV,4,3,13,23,41,240,34,24,04,158,21,25,40,214,33,26,08,307,*78
RAW: $GPGSV,4,4,13,29,67,005,07*43
RAW: $GPGLL,1913.42617,N,07308.47114,E,144811.00,A,A*67
RAW: $GPRMC,144812.00,A,1913.42487,N,07308.47094,E,0.185,,310126,,,A*74
LAT: 19Ā° 13.42487' N
LON: 73Ā° 8.47094' E
CITY: Kalyan East

RAW: $GPVTG,,T,,M,0.185,N,0.342,K,A*2A
RAW: $GPGGA,144812.00,1913.42487,N,07308.47094,E,1,05,2.14,10.6,M,-65.5,M,,*4D
RAW: $GPGSA,A,3,23,12,13,25,15,,,,,,,,3.98,2.14,3.36*02
RAW: $GPGSV,4,1,13,05,33,029,,10,06,226,23,11,06,072,,12,20,174,37*74
RAW: $GPGSV,4,2,13,13,31,086,16,15,55,124,30,18,29,309,,21,06,039,*73
RAW: $GPGSV,4,3,13,23,41,240,34,24,04,158,22,25,40,214,34,26,08,307,*7C
RAW: $GPGSV,4,4,13,29,67,005,08*4C
RAW: $GPGLL,1913.42487,N,07308.47094,E,144812.00,A,A*66
RAW: $GPRMC,144813.00,A,1913.42383,N,07308.47078,E,0.165,,310126,,,A*7A
LAT: 19Ā° 13.42383' N
LON: 73Ā° 8.47078' E
CITY: Kalyan East

RAW: $GPVTG,,T,,M,0.165,N,0.306,K,A*24
RAW: $GPGGA,144813.00,1913.42383,N,07308.47078,E,1,05,2.14,12.9,M,-65.5,M,,*40
RAW: $GPGSA,A,3,23,12,13,25,15,,,,,,,,3.98,2.14,3.36*02
RAW: $GPGSV,4,1,13,05,33,029,,10,06,226,24,11,06,072,,12,20,174,37*73
RAW: $GPGSV,4,2,13,13,31,086,17,15,55,124,30,18,29,309,,21,06,039,*72
RAW: $GPGSV,4,3,13,23,41,240,34,24,04,158,23,25,40,214,34,26,08,307,*7D
RAW: $GPGSV,4,4,13,29,67,005,08*4C
RAW: $GPGLL,1913.42383,N,07308.47078,E,144813.00,A,A*66
RAW: $GPRMC,144814.00,A,1913.42261,N,07308.47056,E,0.412,,310126,,,A*79
LAT: 19Ā° 13.42261' N
LON: 73Ā° 8.47056' E
CITY: Kalyan East

RAW: $GPVTG,,T,,M,0.412,N,0.763,K,A*26
RAW: $GPGGA,144814.00,1913.42261,N,07308.47056,E,1,05,2.14,15.5,M,-65.5,M,,*4D
RAW: $GPGSA,A,3,23,12,13,25,15,,,,,,,,3.98,2.14,3.36*02
RAW: $GPGSV,4,1,13,05,33,029,,10,06,226,25,11,06,072,,12,20,174,37*72
RAW: $GPGSV,4,2,13,13,31,086,16,15,55,124,30,18,29,309,,21,06,039,*73
RAW: $GPGSV,4,3,13,23,41,240,34,24,04,158,23,25,40,214,34,26,08,307,*7D
RAW: $GPGSV,4,4,13,29,67,005,10*45
RAW: $GPGLL,1913.42261,N,07308.47056,E,144814.00,A,A*60
RAW: $GPRMC,144815.00,A,1913.42188,N,07308.47042,E,0.530,,310126,,,A*78
LAT: 19Ā° 13.42188' N
LON: 73Ā° 8.47042' E
CITY: Kalyan East

RAW: $GPVTG,,T,,M,0.530,N,0.981,K,A*25
RAW: $GPGGA,144815.00,1913.42188,N,07308.47042,E,1,05,2.14,17.2,M,-65.5,M,,*48
RAW: $GPGSA,A,3,23,12,13,25,15,,,,,,,,3.98,2.14,3.36*02
RAW: $GPGSV,4,1,13,05,33,029,,10,06,226,24,11,06,072,,12,20,174,37*73
RAW: $GPGSV,4,2,13,13,31,086,13,15,55,124,30,18,29,309,,21,06,039,*76
RAW: $GPGSV,4,3,13,23,41,240,34,24,04,158,23,25,40,214,34,26,08,307,*7D
RAW: $GPGSV,4,4,13,29,67,005,10*45
RAW: $GPGLL,1913.42188,N,07308.47042,E,144815.00,A,A*60
RAW: $GPRMC,144816.00,A,1913.42123,N,07308.47031,E,0.592,,310126,,,A*76
LAT: 19Ā° 13.42123' N
LON: 73Ā° 8.47031' E
CITY: Kalyan East

RAW: $GPVTG,,T,,M,0.592,N,1.097,K,A*22
RAW: $GPGGA,144816.00,1913.42123,N,07308.47031,E,1,05,2.14,18.6,M,-65.5,M,,*45
RAW: $GPGSA,A,3,23,12,13,25,15,,,,,,,,3.98,2.14,3.36*02
RAW: $GPGSV,4,1,13,05,33,029,,10,06,226,23,11,06,072,,12,20,174,36*75
RAW: $GPGSV,4,2,13,13,31,086,11,15,55,124,30,18,29,309,,21,06,039,*74
RAW: $GPGSV,4,3,13,23,41,240,34,24,04,158,22,25,40,214,33,26,08,307,*7B
RAW: $GPGSV,4,4,13,29,67,005,10*45
RAW: $GPGLL,1913.42123,N,07308.47031,E,144816.00,A,A*66
RAW: $GPRMC,144817.00,A,1913.42065,N,07308.47022,E,0.533,,310126,,,A*7D
LAT: 19Ā° 13.42065' N
LON: 73Ā° 8.47022' E
CITY: Kalyan East

RAW: $GPVTG,,T,,M,0.533,N,0.988,K,A*2F
RAW: $GPGGA,144817.00,1913.42065,N,07308.47022,E,1,05,2.14,20.0,M,-65.5,M,,*48
RAW: $GPGSA,A,3,23,12,13,25,15,,,,,,,,3.98,2.14,3.36*02
RAW: $GPGSV,4,1,13,05,33,029,,10,06,226,23,11,06,072,,12,20,174,35*76
RAW: $GPGSV,4,2,13,13,31,086,12,15,55,124,30,18,29,309,,21,06,039,*77
RAW: $GPGSV,4,3,13,23,41,240,33,24,04,158,22,25,40,214,33,26,08,307,*7C
RAW: $GPGSV,4,4,13,29,67,005,10*45
RAW: $GPGLL,1913.42065,N,07308.47022,E,144817.00,A,A*66
RAW: $GPRMC,144818.00,A,1913.42005,N,07308.47019,E,0.179,,310126,,,A*76
LAT: 19Ā° 13.42005' N
LON: 73Ā° 8.47019' E
CITY: Kalyan East

RAW: $GPVTG,,T,,M,0.179,N,0.331,K,A*2D
RAW: $GPGGA,144818.00,1913.42005,N,07308.47019,E,1,05,2.14,21.6,M,-65.5,M,,*4E
RAW: $GPGSA,A,3,23,12,13,25,15,,,,,,,,3.98,2.14,3.36*02
RAW: $GPGSV,4,1,13,05,33,029,,10,06,226,22,11,06,072,,12,20,174,33*71
RAW: $GPGSV,4,2,13,13,31,086,13,15,55,124,29,18,29,309,,21,06,039,*7E
RAW: $GPGSV,4,3,13,23,41,240,30,24,04,158,22,25,40,214,32,26,08,307,*7E
RAW: $GPGSV,4,4,13,29,67,005,10*45
RAW: $GPGLL,1913.42005,N,07308.47019,E,144818.00,A,A*67
RAW: $GPRMC,144819.00,A,1913.41957,N,07308.47012,E,0.245,,310126,,,A*7D
LAT: 19Ā° 13.41957' N
LON: 73Ā° 8.47012' E
CITY: Kalyan East

RAW: $GPVTG,,T,,M,0.245,N,0.453,K,A*22
RAW: $GPGGA,144819.00,1913.41957,N,07308.47012,E,1,05,2.14,22.8,M,-65.5,M,,*44
RAW: $GPGSA,A,3,23,12,13,25,15,,,,,,,,3.98,2.14,3.36*02
RAW: $GPGSV,4,1,13,05,33,029,,10,06,226,21,11,06,072,,12,20,174,34*75
RAW: $GPGSV,4,2,13,13,31,086,10,15,55,124,28,18,29,309,,21,06,039,*7C
RAW: $GPGSV,4,3,13,23,41,240,31,24,04,158,21,25,40,214,31,26,08,307,*7F
RAW: $GPGSV,4,4,13,29,67,005,10*45
RAW: $GPGLL,1913.41957,N,07308.47012,E,144819.00,A,A*60
RAW: $GPRMC,144820.00,A,1913.41915,N,07308.47009,E,0.214,,310126,,,A*7F
LAT: 19Ā° 13.41915' N
LON: 73Ā° 8.47009' E
CITY: Kalyan East

RAW: $GPVTG,,T,,M,0.214,N,0.397,K,A*29
RAW: $GPGGA,144820.00,1913.41915,N,07308.47009,E,1,05,2.14,23.9,M,-65.5,M,,*42
RAW: $GPGSA,A,3,23,12,13,25,15,,,,,,,,3.98,2.14,3.36*02
RAW: $GPGSV,4,1,13,05,33,029,,10,06,226,19,11,06,072,,12,20,174,34*7E
RAW: $GPGSV,4,2,13,13,31,086,10,15,55,124,28,18,29,309,,21,06,039,*7C
RAW: $GPGSV,4,3,13,23,41,240,31,24,04,158,20,25,40,214,31,26,08,307,*7E
RAW: $GPGSV,4,4,13,29,67,005,08*4C
RAW: $GPGLL,1913.41915,N,07308.47009,E,144820.00,A,A*66
RAW: $GPRMC,144821.00,A,1913.41870,N,07308.47003,E,0.392,,310126,,,A*79
LAT: 19Ā° 13.41870' N
LON: 73Ā° 8.47003' E
CITY: Kalyan East

RAW: $GPVTG,,T,,M,0.392,N,0.725,K,A*2B
RAW: $GPGGA,144821.00,1913.41870,N,07308.47003,E,1,05,2.14,25.0,M,-65.5,M,,*44
RAW: $GPGSA,A,3,23,12,13,25,15,,,,,,,,3.98,2.14,3.36*02
RAW: $GPGSV,4,1,13,05,33,029,,10,06,226,21,11,06,072,,12,20,174,36*77
RAW: $GPGSV,4,2,13,13,31,086,12,15,55,124,30,18,29,309,,21,06,039,*77
RAW: $GPGSV,4,3,13,23,41,240,32,24,04,158,22,25,40,214,32,26,08,307,*7C
RAW: $GPGSV,4,4,13,29,67,005,08*4C
RAW: $GPGLL,1913.41870,N,07308.47003,E,144821.00,A,A*6F
RAW: $GPRMC,144822.00,A,1913.41817,N,07308.47002,E,0.416,,310126,,,A*71
LAT: 19Ā° 13.41817' N
LON: 73Ā° 8.47002' E
CITY: Kalyan East

RAW: $GPVTG,,T,,M,0.416,N,0.770,K,A*20
RAW: $GPGGA,144822.00,1913.41817,N,07308.47002,E,1,05,2.14,26.5,M,-65.5,M,,*41
RAW: $GPGSA,A,3,23,12,13,25,15,,,,,,,,3.98,2.14,3.36*02
RAW: $GPGSV,4,1,13,05,33,029,,10,06,226,22,11,06,072,,12,20,174,36*74
RAW: $GPGSV,4,2,13,13,31,086,12,15,55,124,29,18,29,309,,21,06,039,*7F
RAW: $GPGSV,4,3,13,23,41,240,32,24,04,158,21,25,40,214,32,26,08,307,*7F
RAW: $GPGSV,4,4,13,29,67,005,08*4C
RAW: $GPGLL,1913.41817,N,07308.47002,E,144822.00,A,A*6C
RAW: $GPRMC,144823.00,A,1913.41777,N,07308.46998,E,0.350,,310126,,,A*77
LAT: 19Ā° 13.41777' N
LON: 73Ā° 8.46998' E
CITY: Kalyan East

RAW: $GPVTG,,T,,M,0.350,N,0.648,K,A*2F
RAW: $GPGGA,144823.00,1913.41777,N,07308.46998,E,1,05,2.14,27.6,M,-65.5,M,,*40
RAW: $GPGSA,A,3,23,12,13,25,15,,,,,,,,3.98,2.14,3.36*02
RAW: $GPGSV,4,1,13,05,33,029,,10,06,226,22,11,06,072,,12,20,174,36*74
RAW: $GPGSV,4,2,13,13,31,086,11,15,55,124,30,18,29,309,,21,06,039,*74
RAW: $GPGSV,4,3,13,23,41,240,33,24,04,158,22,25,40,214,33,26,08,307,*7C
RAW: $GPGSV,4,4,13,29,67,005,08*4C
RAW: $GPGLL,1913.41777,N,07308.46998,E,144823.00,A,A*6F
RAW: $GPRMC,144824.00,A,1913.41733,N,07308.46992,E,0.352,,310126,,,A*78
LAT: 19Ā° 13.41733' N
LON: 73Ā° 8.46992' E
CITY: Kalyan East

RAW: $GPVTG,,T,,M,0.352,N,0.651,K,A*25
RAW: $GPGGA,144824.00,1913.41733,N,07308.46992,E,1,05,2.14,28.7,M,-65.5,M,,*43
RAW: $GPGSA,A,3,23,12,13,25,15,,,,,,,,3.98,2.14,3.36*02
RAW: $GPGSV,4,1,13,05,33,029,,10,06,226,22,11,06,072,,12,20,174,36*74
RAW: $GPGSV,4,2,13,13,31,086,11,15,55,124,30,18,29,309,,21,06,039,*74
RAW: $GPGSV,4,3,13,23,41,240,33,24,04,158,21,25,40,214,33,26,08,307,*7F
RAW: $GPGSV,4,4,13,29,67,005,08*4C
RAW: $GPGLL,1913.41733,N,07308.46992,E,144824.00,A,A*62
RAW: $GPRMC,144825.00,A,1913.41693,N,07308.46987,E,0.240,,310126,,,A*74
LAT: 19Ā° 13.41693' N
LON: 73Ā° 8.46987' E
CITY: Kalyan East

RAW: $GPVTG,,T,,M,0.240,N,0.445,K,A*20
RAW: $GPGGA,144825.00,1913.41693,N,07308.46987,E,1,05,2.14,29.7,M,-65.5,M,,*4C
RAW: $GPGSA,A,3,23,12,13,25,15,,,,,,,,3.98,2.14,3.36*02
RAW: $GPGSV,4,1,13,05,33,029,,10,06,226,22,11,06,072,,12,20,174,36*74
RAW: $GPGSV,4,2,13,13,31,086,12,15,55,124,30,18,29,309,,21,06,039,*77
RAW: $GPGSV,4,3,13,23,41,240,33,24,04,158,22,25,40,214,33,26,08,307,*7C
RAW: $GPGSV,4,4,13,29,67,005,09*4D
RAW: $GPGLL,1913.41693,N,07308.46987,E,144825.00,A,A*6C
RAW: $GPRMC,144826.00,A,1913.41633,N,07308.46983,E,0.129,,310126,,,A*75
LAT: 19Ā° 13.41633' N
LON: 73Ā° 8.46983' E
CITY: Kalyan East

RAW: $GPVTG,,T,,M,0.129,N,0.239,K,A*21
RAW: $GPGGA,144826.00,1913.41633,N,07308.46983,E,1,05,2.14,31.3,M,-65.5,M,,*4C
RAW: $GPGSA,A,3,23,12,13,25,15,,,,,,,,3.98,2.14,3.36*02
RAW: $GPGSV,4,1,13,05,33,029,,10,06,226,22,11,06,072,,12,20,174,36*74
RAW: $GPGSV,4,2,13,13,31,086,14,15,55,124,29,18,29,309,,21,06,039,*79
RAW: $GPGSV,4,3,13,23,41,240,33,24,04,158,21,25,40,214,33,26,08,307,*7F
RAW: $GPGSV,4,4,13,29,67,005,09*4D
RAW: $GPGLL,1913.41633,N,07308.46983,E,144826.00,A,A*61
RAW: $GPRMC,144827.00,A,1913.41595,N,07308.46976,E,0.104,,310126,,,A*7E
LAT: 19Ā° 13.41595' N
LON: 73Ā° 8.46976' E
CITY: Kalyan East

RAW: $GPVTG,,T,,M,0.104,N,0.192,K,A*2C
RAW: $GPGGA,144827.00,1913.41595,N,07308.46976,E,1,05,2.14,32.2,M,-65.5,M,,*4A
RAW: $GPGSA,A,3,23,12,13,25,15,,,,,,,,3.98,2.14,3.36*02
RAW: $GPGSV,4,1,13,05,33,029,,10,06,226,23,11,06,072,,12,20,174,37*74
RAW: $GPGSV,4,2,13,13,31,086,13,15,55,124,30,18,29,309,,21,06,039,*76
RAW: $GPGSV,4,3,13,23,41,240,34,24,04,158,21,25,40,214,33,26,08,307,*78
RAW: $GPGSV,4,4,13,29,67,005,09*4D
RAW: $GPGLL,1913.41595,N,07308.46976,E,144827.00,A,A*65
RAW: $GPRMC,144828.00,A,1913.41562,N,07308.46972,E,0.138,,310126,,,A*72
LAT: 19Ā° 13.41562' N
LON: 73Ā° 8.46972' E
CITY: Kalyan East

RAW: $GPVTG,,T,,M,0.138,N,0.256,K,A*28
RAW: $GPGGA,144828.00,1913.41562,N,07308.46972,E,1,05,2.14,33.1,M,-65.5,M,,*4B
RAW: $GPGSA,A,3,23,12,13,25,15,,,,,,,,3.98,2.14,3.35*01
RAW: $GPGSV,4,1,13,05,33,029,,10,06,226,22,11,06,072,,12,20,174,37*75
RAW: $GPGSV,4,2,13,13,31,086,12,15,55,124,29,18,29,309,,21,06,039,*7F
RAW: $GPGSV,4,3,13,23,41,240,33,24,04,158,19,25,40,214,33,26,08,307,*74
RAW: $GPGSV,4,4,13,29,67,005,09*4D
RAW: $GPGLL,1913.41562,N,07308.46972,E,144828.00,A,A*66
RAW: $GPRMC,144829.00,A,1913.41527,N,07308.46969,E,0.265,,310126,,,A*73
LAT: 19Ā° 13.41527' N
LON: 73Ā° 8.46969' E
CITY: Kalyan East

RAW: $GPVTG,,T,,M,0.265,N,0.490,K,A*2F
RAW: $GPGGA,144829.00,1913.41527,N,07308.46969,E,1,05,2.14,34.0,M,-65.5,M,,*47
RAW: $GPGSA,A,3,23,12,13,25,15,,,,,,,,3.98,2.14,3.35*01
RAW: $GPGSV,4,1,13,05,33,029,,10,06,226,23,11,06,072,,12,20,174,37*74
RAW: $GPGSV,4,2,13,13,31,086,11,15,55,124,29,18,29,309,,21,06,039,*7C
RAW: $GPGSV,4,3,13,23,41,240,33,24,04,158,19,25,40,214,33,26,08,307,*74
RAW: $GPGSV,4,4,13,29,67,005,09*4D
RAW: $GPGLL,1913.41527,N,07308.46969,E,144829.00,A,A*6C
RAW: $GPRMC,144830.00,A,1913.41500,N,07308.46968,E,0.414,,310126,,,A*7F
LAT: 19Ā° 13.41500' N
LON: 73Ā° 8.46968' E
CITY: Kalyan East

RAW: $GPVTG,,T,,M,0.414,N,0.767,K,A*24
RAW: $GPGGA,144830.00,1913.41500,N,07308.46968,E,1,05,2.14,34.7,M,-65.5,M,,*4C
RAW: $GPGSA,A,3,23,12,13,25,15,,,,,,,,3.98,2.14,3.35*01
RAW: $GPGSV,4,1,13,05,33,029,,10,06,226,23,11,06,072,,12,20,174,37*74
RAW: $GPGSV,4,2,13,13,31,086,10,15,55,124,29,18,29,309,,21,06,039,*7D
RAW: $GPGSV,4,3,13,23,41,240,33,24,04,158,19,25,40,214,35,26,08,307,*72
RAW: $GPGSV,4,4,13,29,67,005,08*4C
RAW: $GPGLL,1913.41500,N,07308.46968,E,144830.00,A,A*60
RAW: $GPRMC,144831.00,A,1913.41485,N,07308.46974,E,0.208,,310126,,,A*74
LAT: 19Ā° 13.41485' N
LON: 73Ā° 8.46974' E
CITY: Kalyan East

RAW: $GPVTG,,T,,M,0.208,N,0.385,K,A*27
RAW: $GPGGA,144831.00,1913.41485,N,07308.46974,E,1,05,2.14,35.4,M,-65.5,M,,*4E
RAW: $GPGSA,A,3,23,12,13,25,15,,,,,,,,3.98,2.14,3.35*01
RAW: $GPGSV,4,1,13,05,33,029,,10,06,226,23,11,06,072,,12,20,174,36*75
RAW: $GPGSV,4,2,13,13,31,086,12,15,55,124,29,18,29,309,,21,06,039,*7F
RAW: $GPGSV,4,3,13,23,41,240,34,24,04,158,19,25,40,214,34,26,08,307,*74
RAW: $GPGSV,4,4,13,29,67,005,08*4C
RAW: $GPGLL,1913.41485,N,07308.46974,E,144831.00,A,A*60
RAW: $GPRMC,144832.00,A,1913.41454,N,07308.46981,E,0.374,,310126,,,A*7B
LAT: 19Ā° 13.41454' N
LON: 73Ā° 8.46981' E
CITY: Kalyan East

RAW: $GPVTG,,T,,M,0.374,N,0.693,K,A*2F
RAW: $GPGGA,144832.00,1913.41454,N,07308.46981,E,1,05,2.14,36.6,M,-65.5,M,,*4A
RAW: $GPGSA,A,3,23,12,13,25,15,,,,,,,,3.98,2.14,3.35*01
RAW: $GPGSV,4,1,13,05,33,029,,10,06,226,22,11,06,072,,12,20,174,35*77
RAW: $GPGSV,4,2,13,13,31,086,13,15,55,124,28,18,29,309,,21,06,039,*7F
RAW: $GPGSV,4,3,13,23,41,240,33,24,04,158,19,25,40,214,32,26,08,307,*75
RAW: $GPGSV,4,4,13,29,67,005,11*44
RAW: $GPGLL,1913.41454,N,07308.46981,E,144832.00,A,A*65
RAW: $GPRMC,144833.00,A,1913.41415,N,07308.46982,E,0.402,,310126,,,A*7A
LAT: 19Ā° 13.41415' N
LON: 73Ā° 8.46982' E
CITY: Kalyan East

RAW: $GPVTG,,T,,M,0.402,N,0.744,K,A*22
RAW: $GPGGA,144833.00,1913.41415,N,07308.46982,E,1,05,2.14,37.8,M,-65.5,M,,*42
RAW: $GPGSA,A,3,23,12,13,25,15,,,,,,,,3.97,2.14,3.35*0E
RAW: $GPGSV,4,1,13,05,33,029,,10,06,226,22,11,06,072,,12,20,174,36*74
RAW: $GPGSV,4,2,13,13,31,086,14,15,55,124,28,18,29,309,,21,06,039,*78
RAW: $GPGSV,4,3,13,23,41,240,33,24,04,158,18,25,40,214,33,26,08,307,*75
RAW: $GPGSV,4,4,13,29,67,005,11*44
RAW: $GPGLL,1913.41415,N,07308.46982,E,144833.00,A,A*62
RAW: $GPRMC,144834.00,A,1913.41376,N,07308.46981,E,0.161,,310126,,,A*7C
LAT: 19Ā° 13.41376' N
LON: 73Ā° 8.46981' E
CITY: Kalyan East

RAW: $GPVTG,,T,,M,0.161,N,0.299,K,A*27
RAW: $GPGGA,144834.00,1913.41376,N,07308.46981,E,1,05,2.14,39.0,M,-65.5,M,,*42
RAW: $GPGSA,A,3,23,12,13,25,15,,,,,,,,3.97,2.14,3.35*0E
RAW: $GPGSV,4,1,13,05,33,029,,10,06,226,23,11,06,072,,12,20,174,36*75
RAW: $GPGSV,4,2,13,13,31,086,14,15,55,124,28,18,29,309,,21,06,039,*78
RAW: $GPGSV,4,3,13,23,41,240,33,24,04,158,18,25,40,214,33,26,08,307,*75
RAW: $GPGSV,4,4,13,29,67,005,11*44
RAW: $GPGLL,1913.41376,N,07308.46981,E,144834.00,A,A*64
RAW: $GPRMC,144835.00,A,1913.41334,N,07308.46977,E,0.276,,310126,,,A*77
LAT: 19Ā° 13.41334' N
LON: 73Ā° 8.46977' E
CITY: Kalyan East

RAW: $GPVTG,,T,,M,0.276,N,0.512,K,A*26
RAW: $GPGGA,144835.00,1913.41334,N,07308.46977,E,1,05,2.14,40.1,M,-65.5,M,,*43
RAW: $GPGSA,A,3,23,12,13,25,15,,,,,,,,3.97,2.14,3.35*0E
RAW: $GPGSV,4,1,13,05,33,029,,10,06,226,23,11,06,072,,12,20,174,36*75
RAW: $GPGSV,4,2,13,13,31,086,14,15,55,124,28,18,29,309,,21,06,039,*78
RAW: $GPGSV,4,3,13,23,41,240,33,24,04,158,19,25,40,214,33,26,08,307,*74
RAW: $GPGSV,4,4,13,29,67,005,11*44
RAW: $GPGLL,1913.41334,N,07308.46977,E,144835.00,A,A*6A
RAW: $GPRMC,144836.00,A,1913.41303,N,07308.46980,E,0.188,,310126,,,A*7A
LAT: 19Ā° 13.41303' N
LON: 73Ā° 8.46980' E
CITY: Kalyan East

RAW: $GPVTG,,T,,M,0.188,N,0.348,K,A*2D
RAW: $GPGGA,144836.00,1913.41303,N,07308.46980,E,1,05,2.13,41.1,M,-65.5,M,,*4A
RAW: $GPGSA,A,3,23,12,13,25,15,,,,,,,,3.97,2.13,3.35*09
RAW: $GPGSV,4,1,13,05,33,029,,10,06,226,22,11,06,072,,12,20,174,34*76
RAW: $GPGSV,4,2,13,13,31,086,14,15,55,124,27,18,29,309,,21,06,039,*77
RAW: $GPGSV,4,3,13,23,41,240,33,24,04,158,18,25,40,214,33,26,08,307,*75
RAW: $GPGSV,4,4,13,29,67,005,11*44
RAW: $GPGLL,1913.41303,N,07308.46980,E,144836.00,A,A*65
RAW: $GPRMC,144837.00,A,1913.41286,N,07308.46991,E,0.414,,310126,,,A*77
LAT: 19Ā° 13.41286' N
LON: 73Ā° 8.46991' E
CITY: Kalyan East

RAW: $GPVTG,,T,,M,0.414,N,0.768,K,A*2B
RAW: $GPGGA,144837.00,1913.41286,N,07308.46991,E,1,05,2.13,42.0,M,-65.5,M,,*45
RAW: $GPGSA,A,3,23,12,13,25,15,,,,,,,,3.97,2.13,3.35*09
RAW: $GPGSV,4,1,13,05,33,029,,10,06,226,23,11,06,072,,12,20,174,36*75
RAW: $GPGSV,4,2,13,13,31,086,14,15,55,124,27,18,29,309,,21,06,039,*77
RAW: $GPGSV,4,3,13,23,41,240,34,24,04,158,18,25,40,214,34,26,08,307,*75
RAW: $GPGSV,4,4,13,29,67,005,11*44
RAW: $GPGLL,1913.41286,N,07308.46991,E,144837.00,A,A*68
RAW: $GPRMC,144838.00,A,1913.41257,N,07308.46987,E,0.164,,310126,,,A*71
LAT: 19Ā° 13.41257' N
LON: 73Ā° 8.46987' E
CITY: Kalyan East

RAW: $GPVTG,,T,,M,0.164,N,0.303,K,A*20
RAW: $GPGGA,144838.00,1913.41257,N,07308.46987,E,1,05,2.13,42.7,M,-65.5,M,,*46
RAW: $GPGSA,A,3,23,12,13,25,15,,,,,,,,3.97,2.13,3.35*09
RAW: $GPGSV,4,1,13,05,33,029,,10,06,226,23,11,06,072,,12,20,174,36*75
RAW: $GPGSV,4,2,13,13,31,086,12,15,55,124,27,18,29,309,,21,06,039,*71
RAW: $GPGSV,4,3,13,23,41,240,33,24,04,158,18,25,40,214,33,26,08,307,*75
RAW: $GPGSV,4,4,13,29,67,005,13*46
RAW: $GPGLL,1913.41257,N,07308.46987,E,144838.00,A,A*6C
RAW: $GPRMC,144839.00,A,1913.41196,N,07308.46964,E,0.851,,310126,,,A*7C
LAT: 19Ā° 13.41196' N
LON: 73Ā° 8.46964' E
CITY: Kalyan East

RAW: $GPVTG,,T,,M,0.851,N,1.577,K,A*2B
RAW: $GPGGA,144839.00,1913.41196,N,07308.46964,E,1,05,2.13,43.6,M,-65.5,M,,*44
RAW: $GPGSA,A,3,23,12,13,25,15,,,,,,,,3.97,2.13,3.35*09
RAW: $GPGSV,4,1,13,05,33,029,,10,06,226,23,11,06,072,,12,20,174,36*75
RAW: $GPGSV,4,2,13,13,31,086,11,15,55,124,27,18,29,309,,21,06,039,*72
RAW: $GPGSV,4,3,13,23,41,240,34,24,04,158,20,25,40,214,34,26,08,307,*7E
RAW: $GPGSV,4,4,13,29,67,005,13*46
RAW: $GPGLL,1913.41196,N,07308.46964,E,144839.00,A,A*6E
RAW: $GPRMC,144840.00,A,1913.41145,N,07308.46948,E,0.936,,310126,,,A*72
LAT: 19Ā° 13.41145' N
LON: 73Ā° 8.46948' E
CITY: Kalyan East

RAW: $GPVTG,,T,,M,0.936,N,1.733,K,A*29
RAW: $GPGGA,144840.00,1913.41145,N,07308.46948,E,1,05,2.13,44.6,M,-65.5,M,,*4D
RAW: $GPGSA,A,3,23,12,13,25,15,,,,,,,,3.97,2.13,3.35*09
RAW: $GPGSV,4,1,13,05,33,029,,10,06,226,23,11,06,072,,12,20,174,36*75
RAW: $GPGSV,4,2,13,13,31,086,11,15,55,124,27,18,29,309,,21,06,039,*72
RAW: $GPGSV,4,3,13,23,41,240,34,24,04,158,21,25,40,214,34,26,08,307,*7F
RAW: $GPGSV,4,4,13,29,67,005,13*46
RAW: $GPGLL,1913.41145,N,07308.46948,E,144840.00,A,A*60
RAW: $GPRMC,144841.00,A,1913.41088,N,07308.46936,E,0.942,,310126,,,A*79
LAT: 19Ā° 13.41088' N
LON: 73Ā° 8.46936' E
CITY: Kalyan East

RAW: $GPVTG,,T,,M,0.942,N,1.745,K,A*2B
RAW: $GPGGA,144841.00,1913.41088,N,07308.46936,E,1,05,2.13,45.8,M,-65.5,M,,*4A
RAW: $GPGSA,A,3,23,12,13,25,15,,,,,,,,3.97,2.13,3.35*09
RAW: $GPGSV,4,1,13,05,33,029,,10,06,226,24,11,06,072,,12,20,174,36*72
RAW: $GPGSV,4,2,13,13,31,086,10,15,55,124,27,18,29,309,,21,06,039,*73
RAW: $GPGSV,4,3,13,23,41,240,33,24,04,158,21,25,40,214,33,26,08,307,*7F
RAW: $GPGSV,4,4,13,29,67,005,13*46
RAW: $GPGLL,1913.41088,N,07308.46936,E,144841.00,A,A*68
RAW: $GPRMC,144842.00,A,1913.41085,N,07308.46940,E,0.772,,310126,,,A*7B
LAT: 19Ā° 13.41085' N
LON: 73Ā° 8.46940' E
CITY: Kalyan East

RAW: $GPVTG,,T,,M,0.772,N,1.430,K,A*27
RAW: $GPGGA,144842.00,1913.41085,N,07308.46940,E,1,04,6.15,46.1,M,-65.5,M,,*4C
RAW: $GPGSA,A,3,23,12,25,15,,,,,,,,,10.50,6.15,8.52*3A
RAW: $GPGSV,4,1,13,05,33,029,,10,06,226,24,11,06,072,,12,20,174,35*71
RAW: $GPGSV,4,2,13,13,31,086,09,15,55,124,27,18,29,309,,21,06,039,*7B
RAW: $GPGSV,4,3,13,23,41,240,32,24,04,158,21,25,40,214,33,26,08,307,*7E
RAW: $GPGSV,4,4,13,29,67,005,13*46
RAW: $GPGLL,1913.41085,N,07308.46940,E,144842.00,A,A*67
RAW: $GPRMC,144843.00,A,1913.41083,N,07308.46945,E,0.814,,310126,,,A*76
LAT: 19Ā° 13.41083' N
LON: 73Ā° 8.46945' E
CITY: Kalyan East

RAW: $GPVTG,,T,,M,0.814,N,1.508,K,A*22
RAW: $GPGGA,144843.00,1913.41083,N,07308.46945,E,1,04,6.15,46.3,M,-65.5,M,,*4C
RAW: $GPGSA,A,3,23,12,25,15,,,,,,,,,10.50,6.15,8.52*3A
RAW: $GPGSV,4,1,13,05,33,029,,10,06,226,24,11,06,072,,12,20,174,35*71
RAW: $GPGSV,4,2,13,13,31,086,09,15,55,124,26,18,29,309,,21,06,039,*7A
RAW: $GPGSV,4,3,13,23,41,240,33,24,04,158,21,25,40,214,33,26,08,307,*7F
RAW: $GPGSV,4,4,13,29,67,005,13*46
RAW: $GPGLL,1913.41083,N,07308.46945,E,144843.00,A,A*65
RAW: $GPRMC,144844.00,A,1913.41087,N,07308.46956,E,0.660,,310126,,,A*7A
LAT: 19Ā° 13.41087' N
LON: 73Ā° 8.46956' E
CITY: Kalyan East

RAW: $GPVTG,,T,,M,0.660,N,1.222,K,A*20
RAW: $GPGGA,144844.00,1913.41087,N,07308.46956,E,1,04,6.14,46.6,M,-65.5,M,,*49
RAW: $GPGSA,A,3,23,12,25,15,,,,,,,,,10.50,6.14,8.51*38
RAW: $GPGSV,4,1,13,05,33,029,,10,06,226,23,11,06,072,,12,20,174,35*76
RAW: $GPGSV,4,2,13,13,31,086,09,15,55,124,26,18,29,309,,21,06,039,*7A
RAW: $GPGSV,4,3,13,23,41,240,33,24,04,158,21,25,40,214,33,26,08,307,*7F
RAW: $GPGSV,4,4,13,29,67,005,14*41
RAW: $GPGLL,1913.41087,N,07308.46956,E,144844.00,A,A*64
RAW: $GPRMC,144845.00,A,1913.41090,N,07308.46966,E,0.395,,310126,,,A*71
LAT: 19Ā° 13.41090' N
LON: 73Ā° 8.46966' E
CITY: Kalyan East

RAW: $GPVTG,,T,,M,0.395,N,0.732,K,A*2A
RAW: $GPGGA,144845.00,1913.41090,N,07308.46966,E,1,04,6.14,46.8,M,-65.5,M,,*43
RAW: $GPGSA,A,3,23,12,25,15,,,,,,,,,10.50,6.14,8.51*38
RAW: $GPGSV,4,1,13,05,33,029,,10,06,226,23,11,06,072,,12,20,174,34*77
RAW: $GPGSV,4,2,13,13,31,086,09,15,55,124,26,18,29,309,,21,06,039,*7A
RAW: $GPGSV,4,3,13,23,41,240,31,24,04,158,21,25,40,214,32,26,08,307,*7C
RAW: $GPGSV,4,4,13,29,67,005,09*4D
RAW: $GPGLL,1913.41090,N,07308.46966,E,144845.00,A,A*60
RAW: $GPRMC,144846.00,A,1913.41096,N,07308.46973,E,0.185,,310126,,,A*73
LAT: 19Ā° 13.41096' N
LON: 73Ā° 8.46973' E
CITY: Kalyan East

RAW: $GPVTG,,T,,M,0.185,N,0.342,K,A*2A
RAW: $GPGGA,144846.00,1913.41096,N,07308.46973,E,1,04,6.14,47.0,M,-65.5,M,,*4B
RAW: $GPGSA,A,3,23,12,25,15,,,,,,,,,10.49,6.14,8.51*30
RAW: $GPGSV,4,1,13,05,33,029,,10,06,226,24,11,06,072,,12,20,174,34*70
RAW: $GPGSV,4,2,13,13,31,086,09,15,55,124,26,18,29,309,,21,06,039,*7A
RAW: $GPGSV,4,3,13,23,41,240,32,24,04,158,22,25,40,214,33,26,08,307,*7D
RAW: $GPGSV,4,4,13,29,67,005,16*43
RAW: $GPGLL,1913.41096,N,07308.46973,E,144846.00,A,A*61
RAW: $GPRMC,144847.00,A,1913.41100,N,07308.46980,E,0.235,,310126,,,A*78
LAT: 19Ā° 13.41100' N
LON: 73Ā° 8.46980' E
CITY: Kalyan East

RAW: $GPVTG,,T,,M,0.235,N,0.435,K,A*25
RAW: $GPGGA,144847.00,1913.41100,N,07308.46980,E,1,04,6.14,47.1,M,-65.5,M,,*49
RAW: $GPGSA,A,3,23,12,25,15,,,,,,,,,10.49,6.14,8.51*30
RAW: $GPGSV,4,1,13,05,33,029,,10,06,226,24,11,06,072,,12,20,174,34*70
RAW: $GPGSV,4,2,13,13,31,086,09,15,55,124,25,18,29,309,,21,06,039,*79
RAW: $GPGSV,4,3,13,23,41,240,31,24,04,158,22,25,40,214,32,26,08,307,*7F
RAW: $GPGSV,4,4,13,29,67,005,20*46
RAW: $GPGLL,1913.41100,N,07308.46980,E,144847.00,A,A*62
RAW: $GPRMC,144848.00,A,1913.41111,N,07308.46989,E,0.364,,310126,,,A*7B
LAT: 19Ā° 13.41111' N
LON: 73Ā° 8.46989' E
CITY: Kalyan East

RAW: $GPVTG,,T,,M,0.364,N,0.674,K,A*27
RAW: $GPGGA,144848.00,1913.41111,N,07308.46989,E,1,04,6.14,47.2,M,-65.5,M,,*4C
RAW: $GPGSA,A,3,23,12,25,15,,,,,,,,,10.49,6.14,8.51*30
RAW: $GPGSV,4,1,13,05,33,029,,10,06,226,24,11,06,072,,12,20,174,34*70
RAW: $GPGSV,4,2,13,13,31,086,09,15,55,124,26,18,29,309,,21,06,039,*7A
RAW: $GPGSV,4,3,13,23,41,240,32,24,04,158,23,25,40,214,33,26,08,307,*7C
RAW: $GPGSV,4,4,13,29,67,005,20*46
RAW: $GPGLL,1913.41111,N,07308.46989,E,144848.00,A,A*64
RAW: $GPRMC,144849.00,A,1913.41124,N,07308.47004,E,0.231,,310126,,,A*70
LAT: 19Ā° 13.41124' N
LON: 73Ā° 8.47004' E
CITY: Kalyan East

RAW: $GPVTG,,T,,M,0.231,N,0.429,K,A*2C
RAW: $GPGGA,144849.00,1913.41124,N,07308.47004,E,1,04,6.14,47.4,M,-65.5,M,,*40
RAW: $GPGSA,A,3,23,12,25,15,,,,,,,,,10.49,6.14,8.50*31
RAW: $GPGSV,4,1,13,05,33,029,,10,07,226,24,11,06,072,,12,20,174,34*71
RAW: $GPGSV,4,2,13,13,31,086,09,15,55,124,26,18,29,309,,21,06,039,*7A
RAW: $GPGSV,4,3,13,23,41,240,31,24,04,158,23,25,40,214,33,26,08,307,*7F
RAW: $GPGSV,4,4,13,29,67,005,21*47
RAW: $GPGLL,1913.41124,N,07308.47004,E,144849.00,A,A*6E
RAW: $GPRMC,144850.00,A,1913.41133,N,07308.47015,E,0.208,,310126,,,A*74
LAT: 19Ā° 13.41133' N
LON: 73Ā° 8.47015' E
CITY: Kalyan East

RAW: $GPVTG,,T,,M,0.208,N,0.386,K,A*24
RAW: $GPGGA,144850.00,1913.41133,N,07308.47015,E,1,05,6.14,47.5,M,-65.5,M,,*4E
RAW: $GPGSA,A,3,23,12,13,25,15,,,,,,,,10.48,6.14,8.50*32
RAW: $GPGSV,4,1,13,05,33,029,,10,07,226,24,11,06,073,,12,20,174,35*71
RAW: $GPGSV,4,2,13,13,31,086,08,15,55,124,26,18,29,309,,21,06,039,*7B
RAW: $GPGSV,4,3,13,23,41,240,31,24,04,158,23,25,40,214,33,26,08,307,*7F
RAW: $GPGSV,4,4,13,29,67,005,21*47
RAW: $GPGLL,1913.41133,N,07308.47015,E,144850.00,A,A*60
RAW: $GPRMC,144851.00,A,1913.41154,N,07308.47023,E,0.219,,310126,,,A*71
LAT: 19Ā° 13.41154' N
LON: 73Ā° 8.47023' E
CITY: Kalyan East

RAW: $GPVTG,,T,,M,0.219,N,0.405,K,A*28
RAW: $GPGGA,144851.00,1913.41154,N,07308.47023,E,1,05,6.13,47.1,M,-65.5,M,,*48
RAW: $GPGSA,A,3,23,12,13,25,15,,,,,,,,10.48,6.13,8.50*35
RAW: $GPGSV,4,1,13,05,33,029,,10,07,226,24,11,06,073,,12,20,173,35*76
RAW: $GPGSV,4,2,13,13,31,086,08,15,55,124,27,18,29,309,,21,06,039,*7A
RAW: $GPGSV,4,3,13,23,41,240,32,24,04,158,23,25,40,214,36,26,08,307,*79
RAW: $GPGSV,4,4,13,29,67,005,21*47
RAW: $GPGLL,1913.41154,N,07308.47023,E,144851.00,A,A*65
RAW: $GPRMC,144852.00,A,1913.41129,N,07308.47019,E,0.372,,310126,,,A*7D
LAT: 19Ā° 13.41129' N
LON: 73Ā° 8.47019' E
CITY: Kalyan East

RAW: $GPVTG,,T,,M,0.372,N,0.688,K,A*23
RAW: $GPGGA,144852.00,1913.41129,N,07308.47019,E,1,05,2.13,47.6,M,-65.5,M,,*4B
RAW: $GPGSA,A,3,23,12,13,25,15,,,,,,,,3.97,2.13,3.34*08
RAW: $GPGSV,4,1,13,05,33,029,,10,07,226,24,11,06,073,,12,20,173,35*76
RAW: $GPGSV,4,2,13,13,32,085,08,15,55,124,27,18,29,309,,21,06,039,*7A
RAW: $GPGSV,4,3,13,23,41,240,31,24,04,158,23,25,40,214,33,26,08,307,*7F
RAW: $GPGSV,4,4,13,29,67,005,21*47
RAW: $GPGLL,1913.41129,N,07308.47019,E,144852.00,A,A*65
RAW: $GPRMC,144853.00,A,1913.41103,N,07308.47017,E,0.403,,310126,,,A*7B
LAT: 19Ā° 13.41103' N
LON: 73Ā° 8.47017' E
CITY: Kalyan East

RAW: $GPVTG,,T,,M,0.403,N,0.746,K,A*21
RAW: $GPGGA,144853.00,1913.41103,N,07308.47017,E,1,05,2.13,48.2,M,-65.5,M,,*47
RAW: $GPGSA,A,3,23,12,13,25,15,,,,,,,,3.97,2.13,3.34*08
RAW: $GPGSV,4,1,13,05,33,029,,10,07,226,24,11,06,073,,12,20,173,35*76
RAW: $GPGSV,4,2,13,13,32,085,09,15,55,124,27,18,29,309,,21,06,039,*7B
RAW: $GPGSV,4,3,13,23,41,240,31,24,04,158,23,25,40,214,33,26,08,307,*7F
RAW: $GPGSV,4,4,13,29,67,005,20*46
RAW: $GPGLL,1913.41103,N,07308.47017,E,144853.00,A,A*62
RAW: $GPRMC,144854.00,A,1913.41087,N,07308.47018,E,0.202,,310126,,,A*79
LAT: 19Ā° 13.41087' N
LON: 73Ā° 8.47018' E
CITY: Kalyan East

RAW: $GPVTG,,T,,M,0.202,N,0.375,K,A*22
RAW: $GPGGA,144854.00,1913.41087,N,07308.47018,E,1,05,2.13,48.8,M,-65.5,M,,*48
RAW: $GPGSA,A,3,23,12,13,25,15,,,,,,,,3.97,2.13,3.34*08
RAW: $GPGSV,4,1,13,05,33,029,,10,07,226,23,11,06,073,,12,20,173,35*71
RAW: $GPGSV,4,2,13,13,32,085,09,15,56,123,27,18,29,309,,21,06,039,*7F
RAW: $GPGSV,4,3,13,23,41,240,31,24,04,158,23,25,40,214,33,26,08,307,*7F
RAW: $GPGSV,4,4,13,29,67,005,20*46
RAW: $GPGLL,1913.41087,N,07308.47018,E,144854.00,A,A*67
RAW: $GPRMC,144855.00,A,1913.41091,N,07308.47026,E,0.227,,310126,,,A*75
LAT: 19Ā° 13.41091' N
LON: 73Ā° 8.47026' E
CITY: Kalyan East

RAW: $GPVTG,,T,,M,0.227,N,0.421,K,A*23
RAW: $GPGGA,144855.00,1913.41091,N,07308.47026,E,1,05,2.13,49.0,M,-65.5,M,,*4A
RAW: $GPGSA,A,3,23,12,13,25,15,,,,,,,,3.97,2.13,3.34*08
RAW: $GPGSV,4,1,13,05,33,029,,10,07,226,23,11,06,073,,12,20,173,35*71
RAW: $GPGSV,4,2,13,13,32,085,08,15,56,123,28,18,29,309,,21,06,039,*71
RAW: $GPGSV,4,3,13,23,41,240,31,24,04,158,23,25,40,214,34,26,08,307,*78
RAW: $GPGSV,4,4,13,29,67,005,21*47
RAW: $GPGLL,1913.41091,N,07308.47026,E,144855.00,A,A*6C
RAW: $GPRMC,144856.00,A,1913.41103,N,07308.47040,E,0.443,,310126,,,A*78
LAT: 19Ā° 13.41103' N
LON: 73Ā° 8.47040' E
CITY: Kalyan East

RAW: $GPVTG,,T,,M,0.443,N,0.820,K,A*2A
RAW: $GPGGA,144856.00,1913.41103,N,07308.47040,E,1,05,2.13,49.2,M,-65.5,M,,*41
RAW: $GPGSA,A,3,23,12,13,25,15,,,,,,,,3.96,2.13,3.34*09
RAW: $GPGSV,4,1,13,05,33,029,,10,07,226,22,11,06,073,,12,20,173,34*71
RAW: $GPGSV,4,2,13,13,32,085,10,15,56,123,28,18,29,309,,21,06,039,*78
RAW: $GPGSV,4,3,13,23,41,240,31,24,04,158,23,25,40,214,33,26,08,307,*7F
RAW: $GPGSV,4,4,13,29,67,005,20*46
RAW: $GPGLL,1913.41103,N,07308.47040,E,144856.00,A,A*65
RAW: $GPRMC,144857.00,A,1913.41122,N,07308.47053,E,0.536,,310126,,,A*7B
LAT: 19Ā° 13.41122' N
LON: 73Ā° 8.47053' E
CITY: Kalyan East

RAW: $GPVTG,,T,,M,0.536,N,0.993,K,A*20
RAW: $GPGGA,144857.00,1913.41122,N,07308.47053,E,1,05,2.13,49.1,M,-65.5,M,,*42
RAW: $GPGSA,A,3,23,12,13,25,15,,,,,,,,3.96,2.13,3.34*09
RAW: $GPGSV,4,1,13,05,33,029,,10,07,226,23,11,06,073,,12,20,173,35*71
RAW: $GPGSV,4,2,13,13,32,085,10,15,56,123,28,18,29,309,,21,06,039,*78
RAW: $GPGSV,4,3,13,23,41,240,32,24,04,158,22,25,40,214,34,26,08,307,*7A
RAW: $GPGSV,4,4,13,29,67,005,21*47
RAW: $GPGLL,1913.41122,N,07308.47053,E,144857.00,A,A*65
RAW: $GPRMC,144858.00,A,1913.41124,N,07308.47057,E,0.401,,310126,,,A*73
LAT: 19Ā° 13.41124' N
LON: 73Ā° 8.47057' E
CITY: Kalyan East

RAW: $GPVTG,,T,,M,0.401,N,0.742,K,A*27
RAW: $GPGGA,144858.00,1913.41124,N,07308.47057,E,1,05,2.13,49.2,M,-65.5,M,,*4C
RAW: $GPGSA,A,3,23,12,13,25,15,,,,,,,,3.96,2.13,3.34*09
RAW: $GPGSV,4,1,13,05,33,029,,10,07,226,23,11,06,073,,12,20,173,35*71
RAW: $GPGSV,4,2,13,13,32,085,10,15,56,123,29,18,29,309,,21,06,039,*79
RAW: $GPGSV,4,3,13,23,41,240,31,24,04,158,21,25,40,214,34,26,08,307,*7A
RAW: $GPGSV,4,4,13,29,67,005,21*47
RAW: $GPGLL,1913.41124,N,07308.47057,E,144858.00,A,A*68
RAW: $GPRMC,144859.00,A,1913.41137,N,07308.47059,E,0.322,,310126,,,A*78
LAT: 19Ā° 13.41137' N
LON: 73Ā° 8.47059' E
CITY: Kalyan East

RAW: $GPVTG,,T,,M,0.322,N,0.597,K,A*2B
RAW: $GPGGA,144859.00,1913.41137,N,07308.47059,E,1,05,2.13,48.9,M,-65.5,M,,*4B
RAW: $GPGSA,A,3,23,12,13,25,15,,,,,,,,3.96,2.13,3.34*09
RAW: $GPGSV,4,1,13,05,33,029,,10,07,226,24,11,06,073,,12,20,173,35*76
RAW: $GPGSV,4,2,13,13,32,085,09,15,56,123,29,18,29,309,,21,06,039,*71
