e) boot.esp32: SPI Modeets Jul 29 2019 12:21:46

rst:0x1 (POWERON_RESET),boot:0x13 (SPI_FAST_FLASH_BOOT)
configsip: 0, SPIWP:0xee
clk_drv:0x00,q_drv:0x00,d_drv:0x00,cs0_drv:0x00,hd_drv:0x00,wp_drv:0x00
mode:DIO, clock div:2
load:0x3fff0030,len:6276
load:0x40078000,len:15748
load:0x40080400,len:4
ho 8 tail 4 room 4
load:0x40080404,len:3860
entry 0x4008063c
[0;32mI (31) boot: ESP-IDF v5.4.1-dirty 2nd stage bootloader[0m
[0;32mI (31) boot: compile time Jan  8 2026 14:39:13[0m
[0;32mI (31) boot: Multicore bootloader[0m
[0;32mI (33) boot: chip revision: v3.1[0m
[0;32mI (36) boot.esp32: SPI Speed      : 40MHz[0m
[0;32mI (40) boot.esp32: SPI Mode       : DIO[0m
[0;32mI (43) boot.esp32: SPI Flash Size : 2MB[0m
[0;32mI (47) boot: Enabling RNG early entropy source...[0m
[0;32mI (51) boot: Partition Table:[0m
[0;32mI (54) boot: ## Label            Usage          Type ST Offset   Length[0m
[0;32mI (60) boot:  0 nvs              WiFi data        01 02 00009000 00006000[0m
[0;32mI (67) boot:  1 phy_init         RF data          01 01 0000f000 00001000[0m
[0;32mI (73) boot:  2 factory          factory app      00 00 00010000 00100000[0m
[0;32mI (80) boot: End of partition table[0m
[0;32mI (83) esp_image: segment 0: paddr=00010020 vaddr=3f400020 size=0aa34h ( 43572) map[0m
[0;32mI (105) esp_image: segment 1: paddr=0001aa5c vaddr=3ff80000 size=0001ch (    28) load[0m
[0;32mI (106) esp_image: segment 2: paddr=0001aa80 vaddr=3ffb0000 size=02314h (  8980) load[0m
[0;32mI (113) esp_image: segment 3: paddr=0001cd9c vaddr=40080000 size=0327ch ( 12924) load[0m
[0;32mI (122) esp_image: segment 4: paddr=00020020 vaddr=400d0020 size=15990h ( 88464) map[0m
[0;32mI (155) esp_image: segment 5: paddr=000359b8 vaddr=4008327c size=0a994h ( 43412) load[0m
[0;32mI (178) boot: Loaded app from partition at offset 0x10000[0m
[0;32mI (178) boot: Disabling RNG early entropy source...[0m
[0;32mI (189) cpu_start: Multicore app[0m
[0;32mI (197) cpu_start: Pro cpu start user code[0m
[0;32mI (197) cpu_start: cpu freq: 160000000 Hz[0m
[0;32mI (197) app_init: Application information:[0m
[0;32mI (197) app_init: Project name:     app-template[0m
[0;32mI (201) app_init: App version:      1[0m
[0;32mI (205) app_init: Compile time:     Jan  8 2026 14:38:04[0m
[0;32mI (210) app_init: ELF file SHA256:  3c52693d1...[0m
[0;32mI (214) app_init: ESP-IDF:          v5.4.1-dirty[0m
[0;32mI (219) efuse_init: Min chip rev:     v0.0[0m
[0;32mI (222) efuse_init: Max chip rev:     v3.99 [0m
[0;32mI (226) efuse_init: Chip rev:         v3.1[0m
[0;32mI (231) heap_init: Initializing. RAM available for dynamic allocation:[0m
[0;32mI (237) heap_init: At 3FFAE6E0 len 00001920 (6 KiB): DRAM[0m
[0;32mI (242) heap_init: At 3FFB2CD8 len 0002D328 (180 KiB): DRAM[0m
[0;32mI (247) heap_init: At 3FFE0440 len 00003AE0 (14 KiB): D/IRAM[0m
[0;32mI (252) heap_init: At 3FFE4350 len 0001BCB0 (111 KiB): D/IRAM[0m
[0;32mI (258) heap_init: At 4008DC10 len 000123F0 (72 KiB): IRAM[0m
[0;32mI (264) spi_flash: detected chip: generic[0m
[0;32mI (267) spi_flash: flash io: dio[0m
[0;33mW (270) spi_flash: Detected size(4096k) larger than the size in the binary image header(2048k). Using the size in the binary image header.[0m
[0;32mI (282) main_task: Started on CPU0[0m
[0;32mI (292) main_task: Calling app_main()[0m
[0;32mI (292) UART_RX: UART initialized[0m
$GPTXT,01,01,02,u-blox ag - www.u-blox.com*50
$GPTXT,01,01,02,HW  UBX-G60xx  00040007 FF7FFFFFp*53
$GPTXT,01,01,02,ROM CORE 7.03 (45969) Mar 17 2011 16:18:34*59
$GPTXT,01,01,02,ANTSUPERV=AC SD PDoS SR*20
$GPTXT,01,01,02,ANTSTATUS=DONTKNOW*33
$GPRMC,115011.62,V,,,,,,,080126,,,N*71
$GPVTG,,,,,,,,,N*30
$GPGGA,115011.62,,,,,0,00,99.99,,,,,,*67
$GPGSA,A,1,,,,,,,,,,,,,99.99,99.99,99.99*30
$GPGSV,3,1,12,05,13,184,,06,54,027,,11,76,242,,12,27,326,*74
$GPGSV,3,2,12,13,06,197,,14,22,118,,17,17,055,,19,31,036,*72
$GP$GPTXT,01,01,02,u-blox ag - www.u-blox.com*50
$GPTXT,01,01,02,HW  UBX-G60xx  00040007 FF7FFFFFp*53
$GPTXT,01,01,02,ROM CORE 7.03 (45969) Mar 17 2011 16:18:34*59
$GPTXT,01,01,02,ANTSUPERV=AC SD PDoS SR*20
$GPTXT,01,01,02,ANTSTATUS=DONTKNOW*33
$GPRMC,115012.29,V,,,,,,,080126,,,N*7D
$GPVTG,,,,,,,,,N*30
$GPGGA,115012.29,,,,,0,00,99.99,,,,,,*6B
$GPGSA,A,1,,,,,,,,,,,,,99.99,99.99,99.99*30
$GPGSV,3,1,12,05,13,184,,06,54,027,,11,76,242,,12,27,326,*74
$GPGSV,3,2,12,13,06,197,,14,22,118,,17,17,055,,19,31,036,*72
$GPGSV,3,3,12,20,39,161,,21,29,157,,22,38,105,,24,41,270,*76
$GPGLL,,,,,115012.29,V,N*47
$GPRMC,115013.00,V,,,,,,,080126,,,N*77
$GPVTG,,,,,,,,,N*30
$GPGGA,115013.00,,,,,0,00,99.99,,,,,,*61
$GPGSA,A,1,,,,,,,,,,,,,99.99,99.99,99.99*30
$GPGSV,3,1,12,05,13,184,,06,54,027,,11,76,242,,12,27,326,*74
$GPGSV,3,2,12,13,06,197,,14,22,118,,17,17,055,,19,31,036,*72
$GPGSV,3,3,12,20,39,161,,21,29,157,,22,38,105,,24,41,270,*76
$GPGLL,,,,,115013.00,V,N*4D
$GPTXT,01,01,02,ANTSTATUS=INIT*25
$GPRMC,115014.00,V,,,,,,,080126,,,N*70
$GPVTG,,,,,,,,,N*30
$GPGGA,115014.00,,,,,0,00,99.99,,,,,,*66
$GPGSA,A,1,,,,,,,,,,,,,99.99,99.99,99.99*30
$GPGSV,3,1,12,05,13,184,,06,54,027,,11,76,242,,12,27,326,*74
$GPGSV,3,2,12,13,06,197,,14,22,118,,17,17,055,,19,31,036,*72
$GPGSV,3,3,12,20,39,161,,21,29,157,,22,38,105,,24,41,270,*76
$GPGLL,,,,,115014.00,V,N*4A
$GPTXT,01,01,02,ANTSTATUS=OK*3B
$GPRMC,115015.00,V,,,,,,,080126,,,N*71
$GPVTG,,,,,,,,,N*30
$GPGGA,115015.00,,,,,0,00,99.99,,,,,,*67
$GPGSA,A,1,,,,,,,,,,,,,99.99,99.99,99.99*30
$GPGSV,3,1,12,05,13,184,,06,54,027,,11,76,242,,12,27,326,*74
$GPGSV,3,2,12,13,06,197,,14,22,118,,17,17,055,,19,31,036,*72
$GPGSV,3,3,12,20,39,161,,21,29,157,,22,38,105,,24,41,270,*76
$GPGLL,,,,,115015.00,V,N*4B
$GPRMC,115016.00,V,,,,,,,080126,,,N*72
$GPVTG,,,,,,,,,N*30
$GPGGA,115016.00,,,,,0,00,99.99,,,,,,*64
$GPGSA,A,1,,,,,,,,,,,,,99.99,99.99,99.99*30
$GPGSV,3,1,12,05,13,184,,06,54,027,,11,76,242,,12,27,326,*74
$GPGSV,3,2,12,13,06,197,,14,22,118,,17,17,055,,19,31,036,*72
$GPGSV,3,3,12,20,39,161,,21,29,157,,22,38,105,,24,41,270,*76
$GPGLL,,,,,115016.00,V,N*48
$GPRMC,115017.00,V,,,,,,,080126,,,N*73
$GPVTG,,,,,,,,,N*30
$GPGGA,115017.00,,,,,0,00,99.99,,,,,,*65
$GPGSA,A,1,,,,,,,,,,,,,99.99,99.99,99.99*30
$GPGSV,3,1,12,05,13,184,,06,54,027,,11,76,242,,12,27,326,*74
$GPGSV,3,2,12,13,06,197,,14,22,118,,17,17,055,,19,31,036,*72
$GPGSV,3,3,12,20,39,161,,21,29,157,,22,38,105,,24,41,270,*76
$GPGLL,,,,,115017.00,V,N*49
$GPRMC,115018.00,V,,,,,,,080126,,,N*7C
$GPVTG,,,,,,,,,N*30
$GPGGA,115018.00,,,,,0,00,99.99,,,,,,*6A
$GPGSA,A,1,,,,,,,,,,,,,99.99,99.99,99.99*30
$GPGSV,4,1,13,05,13,184,,06,54,027,,11,76,242,,12,27,326,*72
$GPGSV,4,2,13,13,06,197,,14,22,118,,17,17,055,,19,31,036,*74
$GPGSV,4,3,13,20,39,161,,21,29,157,,22,38,105,,24,41,270,*70
$GPGSV,4,4,13,42,13,097,35*47
$GPGLL,,,,,115018.00,V,N*46
$GPRMC,115019.00,V,,,,,,,080126,,,N*7D
$GPVTG,,,,,,,,,N*30
$GPGGA,115019.00,,,,,0,00,99.99,,,,,,*6B
$GPGSA,A,1,,,,,,,,,,,,,99.99,99.99,99.99*30
$GPGSV,4,1,13,05,13,184,,06,54,027,,11,76,242,,12,27,326,*72
$GPGSV,4,2,13,13,06,197,,14,22,118,,17,17,055,,19,31,036,*74
$GPGSV,4,3,13,20,39,161,,21,29,157,,22,38,105,,24,41,270,*70
$GPGSV,4,4,13,42,13,097,35*47
$GPGLL,,,,,115019.00,V,N*47
$GPRMC,115020.00,V,,,,,,,080126,,,N*77
$GPVTG,,,,,,,,,N*30
$GPGGA,115020.00,,,,,0,00,99.99,,,,,,*61
$GPGSA,A,1,,,,,,,,,,,,,99.99,99.99,99.99*30
$GPGSV,4,1,13,05,13,184,,06,54,027,,11,76,242,,12,27,326,*72
$GPGSV,4,2,13,13,06,197,,14,22,118,,17,17,055,,19,31,036,*74
$GPGSV,4,3,13,20,39,161,,21,29,157,,22,38,105,,24,41,270,*70
$GPGSV,4,4,13,42,13,097,36*44
$GPGLL,,,,,115020.00,V,N*4D
$GPRMC,115021.00,V,,,,,,,080126,,,N*76
$GPVTG,,,,,,,,,N*30
$GPGGA,115021.00,,,,,0,00,99.99,,,,,,*60
$GPGSA,A,1,,,,,,,,,,,,,99.99,99.99,99.99*30
$GPGSV,4,1,13,05,13,184,,06,54,027,20,11,76,242,,12,27,326,*70
$GPGSV,4,2,13,13,06,197,,14,22,118,,17,17,055,,19,31,036,*74
$GPGSV,4,3,13,20,39,161,,21,29,157,,22,38,105,,24,41,270,*70
$GPGSV,4,4,13,42,13,097,38*4A
$GPGLL,,,,,115021.00,V,N*4C
$GPRMC,115022.00,V,,,,,,,080126,,,N*75
$GPVTG,,,,,,,,,N*30
$GPGGA,115022.00,,,,,0,00,99.99,,,,,,*63
$GPGSA,A,1,,,,,,,,,,,,,99.99,99.99,99.99*30
$GPGSV,4,1,13,05,13,184,,06,54,027,,11,76,242,,12,27,326,*72
$GPGSV,4,2,13,13,06,197,,14,22,118,,17,17,055,,19,31,036,*74
$GPGSV,4,3,13,20,39,160,,21,29,157,,22,38,105,,24,41,270,*71
$GPGSV,4,4,13,42,13,097,38*4A
$GPGLL,,,,,115022.00,V,N*4F
$GPRMC,115023.00,V,,,,,,,080126,,,N*74
$GPVTG,,,,,,,,,N*30
$GPGGA,115023.00,,,,,0,00,99.99,,,,,,*62
$GPGSA,A,1,,,,,,,,,,,,,99.99,99.99,99.99*30
$GPGSV,4,1,13,05,13,184,,06,54,027,,11,76,242,,12,27,326,*72
$GPGSV,4,2,13,13,06,197,,14,22,118,,17,17,055,,19,31,036,*74
$GPGSV,4,3,13,20,39,160,,21,29,157,,22,38,105,,24,41,270,*71
$GPGSV,4,4,13,42,13,097,38*4A
$GPGLL,,,,,115023.00,V,N*4E
$GPRMC,115024.00,V,,,,,,,080126,,,N*73
$GPVTG,,,,,,,,,N*30
$GPGGA,115024.00,,,,,0,00,99.99,,,,,,*65
$GPGSA,A,1,,,,,,,,,,,,,99.99,99.99,99.99*30
$GPGSV,4,1,13,05,13,184,,06,54,027,,11,76,242,,12,27,326,*72
$GPGSV,4,2,13,13,06,197,,14,22,118,,17,17,055,,19,31,036,*74
$GPGSV,4,3,13,20,39,160,,21,29,157,,22,38,105,36,24,41,270,*74
$GPGSV,4,4,13,42,13,097,38*4A
$GPGLL,,,,,115024.00,V,N*49
$GPRMC,115025.00,V,,,,,,,080126,,,N*72
$GPVTG,,,,,,,,,N*30
$GPGGA,115025.00,,,,,0,00,99.99,,,,,,*64
$GPGSA,A,1,,,,,,,,,,,,,99.99,99.99,99.99*30
$GPGSV,4,1,13,05,13,184,,06,54,027,,11,76,242,,12,27,326,*72
$GPGSV,4,2,13,13,06,197,,14,22,118,,17,17,055,31,19,31,036,29*7D
$GPGSV,4,3,13,20,39,160,35,21,29,157,,22,38,105,37,24,41,270,*73
$GPGSV,4,4,13,42,13,097,39*4B
$GPGLL,,,,,115025.00,V,N*48
$GPRMC,115025.56,V,,,,,,,080126,,,N*71
$GPVTG,,,,,,,,,N*30
$GPGGA,115025.56,,,,,0,04,5.79,,,,,,*58
$GPGSA,A,1,22,19,14,17,,,,,,,,,5.87,5.79,0.99*0A
$GPGSV,4,1,13,05,13,184,,06,54,027,,11,76,242,,12,27,326,*72
$GPGSV,4,2,13,13,06,197,,14,22,118,35,17,17,055,31,19,31,036,30*73
$GPGSV,4,3,13,20,39,160,34,21,29,157,,22,38,105,38,24,41,270,*7D
$GPGSV,4,4,13,42,13,097,40*45
$GPGLL,,,,,115025.56,V,N*4B
$GPRMC,115025.94,V,,,,,,,080126,,,N*7F
$GPVTG,,,,,,,,,N*30
$GPGGA,115025.94,,,,,0,04,8.17,,,,,,*53
$GPGSA,A,1,22,19,14,17,,,,,,,,,10.08,8.17,5.89*38
$GPGSV,4,1,13,05,13,184,,06,54,027,19,11,76,242,,12,27,326,*7A
$GPGSV,4,2,13,13,06,197,,14,22,118,32,17,17,055,30,19,31,036,30*75
$GPGSV,4,3,13,20,39,160,34,21,29,157,,22,38,105,37,24,41,270,*72
$GPGSV,4,4,13,42,13,097,39*4B
$GPGLL,,,,,115025.94,V,N*45
$GPRMC,115026.94,V,,,,,,,080126,,,N*7C
$GPVTG,,,,,,,,,N*30
$GPGGA,115026.94,,,,,0,04,8.17,,,,,,*50
$GPGSA,A,1,22,19,14,17,,,,,,,,,10.08,8.17,5.89*38
$GPGSV,4,1,13,05,13,184,,06,54,027,19,11,76,242,,12,27,326,*7A
$GPGSV,4,2,13,13,06,197,,14,22,118,33,17,17,055,30,19,31,036,30*74
$GPGSV,4,3,13,20,39,160,34,21,29,157,,22,38,105,37,24,41,270,*72
$GPGSV,4,4,13,42,13,097,39*4B
$GPGLL,,,,,115026.94,V,N*46
$GPRMC,115027.00,V,,,,,,,080126,,,N*70
$GPVTG,,,,,,,,,N*30
$GPGGA,115027.00,,,,,0,04,8.17,,,,,,*5C
$GPGSA,A,1,22,19,14,17,,,,,,,,,10.08,8.17,5.89*38
$GPGSV,4,1,13,05,13,184,,06,54,027,18,11,76,242,,12,27,326,*7B
$GPGSV,4,2,13,13,06,197,,14,22,118,33,17,17,055,30,19,31,036,30*74
$GPGSV,4,3,13,20,39,160,34,21,29,157,,22,38,105,37,24,41,270,*72
$GPGSV,4,4,13,42,13,097,39*4B
$GPGLL,,,,,115027.00,V,N*4A
$GPRMC,115028.00,V,,,,,,,080126,,,N*7F
$GPVTG,,,,,,,,,N*30
$GPGGA,115028.00,,,,,0,04,8.17,,,,,,*53
$GPGSA,A,1,22,19,14,17,,,,,,,,,10.08,8.17,5.89*38
$GPGSV,4,1,13,05,13,184,,06,54,027,16,11,76,242,,12,27,326,*75
$GPGSV,4,2,13,13,06,197,,14,22,118,33,17,17,055,30,19,31,036,30*74
$GPGSV,4,3,13,20,39,160,34,21,29,157,33,22,38,105,38,24,41,270,*7D
$GPGSV,4,4,13,42,13,097,39*4B
$GPGLL,,,,,115028.00,V,N*45
$GPRMC,115029.00,V,,,,,,,080126,,,N*7E
$GPVTG,,,,,,,,,N*30
$GPGGA,115029.00,,,,,0,04,8.17,,,,,,*52
$GPGSA,A,1,22,19,14,17,,,,,,,,,10.08,8.17,5.89*38
$GPGSV,4,1,13,05,13,184,,06,54,027,11,11,76,242,,12,27,326,*72
$GPGSV,4,2,13,13,06,197,,14,22,118,33,17,17,055,30,19,31,036,30*74
$GPGSV,4,3,13,20,39,160,34,21,29,157,33,22,38,105,37,24,41,270,*72
$GPGSV,4,4,13,42,13,097,39*4B
$GPGLL,,,,,115029.00,V,N*44
$GPRMC,115030.00,V,,,,,,,080126,,,N*76
$GPVTG,,,,,,,,,N*30
$GPGGA,115030.00,,,,,0,04,8.17,,,,,,*5A
$GPGSA,A,1,22,19,14,17,,,,,,,,,10.08,8.17,5.89*38
$GPGSV,4,1,13,05,13,184,,06,54,027,,11,76,242,,12,27,326,*72
$GPGSV,4,2,13,13,06,197,,14,22,118,33,17,17,055,31,19,31,036,30*75
$GPGSV,4,3,13,20,39,160,34,21,29,157,33,22,38,105,37,24,41,270,*72
$GPGSV,4,4,13,42,13,097,39*4B
$GPGLL,,,,,115030.00,V,N*4C
$GPRMC,115031.00,A,1907.39600,N,07250.19203,E,0.268,,080126,,,A*7C
$GPVTG,,T,,M,0.268,N,0.496,K,A*24
$GPGGA,115031.00,1907.39600,N,07250.19203,E,1,04,8.17,21.3,M,-65.6,M,,*43
$GPGSA,A,3,22,19,14,17,,,,,,,,,10.08,8.17,5.89*3A
$GPGSV,4,1,13,05,13,184,,06,54,027,,11,76,242,,12,27,326,*72
$GPGSV,4,2,13,13,06,197,,14,22,118,33,17,17,055,31,19,31,036,30*75
$GPGSV,4,3,13,20,39,160,34,21,29,157,33,22,38,105,37,24,41,270,*72
$GPGSV,4,4,13,42,13,097,39*4B
$GPGLL,1907.39600,N,07250.19203,E,115031.00,A,A*64
$GPRMC,115032.00,A,1907.39594,N,07250.19136,E,0.358,,080126,,,A*76
$GPVTG,,T,,M,0.358,N,0.663,K,A*2E
$GPGGA,115032.00,1907.39594,N,07250.19136,E,1,04,8.17,22.0,M,-65.6,M,,*4B
$GPGSA,A,3,22,19,14,17,,,,,,,,,10.08,8.17,5.89*3A
$GPGSV,4,1,13,05,13,184,,06,54,027,,11,76,242,,12,27,326,*72
$GPGSV,4,2,13,13,06,197,,14,22,118,32,17,17,055,30,19,31,036,29*7D
$GPGSV,4,3,13,20,39,160,33,21,29,157,32,22,38,105,35,24,41,270,*76
$GPGSV,4,4,13,42,13,097,37*45
$GPGLL,1907.39594,N,07250.19136,E,115032.00,A,A*6C
$GPRMC,115033.00,A,1907.39588,N,07250.19048,E,0.152,,080126,,,A*7A
$GPVTG,,T,,M,0.152,N,0.282,K,A*2D
$GPGGA,115033.00,1907.39588,N,07250.19048,E,1,04,8.17,22.2,M,-65.6,M,,*4D
$GPGSA,A,3,22,19,14,17,,,,,,,,,10.08,8.17,5.89*3A
$GPGSV,4,1,13,05,13,184,,06,54,027,,11,76,242,,12,27,326,*72
$GPGSV,4,2,13,13,06,197,,14,22,118,33,17,17,055,30,19,31,036,29*7C
$GPGSV,4,3,13,20,39,160,33,21,29,157,33,22,38,105,35,24,41,270,*77
$GPGSV,4,4,13,42,13,097,38*4A
$GPGLL,1907.39588,N,07250.19048,E,115033.00,A,A*68
$GPRMC,115034.00,A,1907.39592,N,07250.19049,E,0.618,,080126,,,A*7E
$GPVTG,,T,,M,0.618,N,1.144,K,A*2C
$GPGGA,115034.00,1907.39592,N,07250.19049,E,1,05,8.17,22.5,M,-65.6,M,,*46
$GPGSA,A,3,06,22,19,14,17,,,,,,,,10.08,8.17,5.89*3C
$GPGSV,4,1,13,05,13,184,,06,54,027,26,11,76,242,,12,27,326,*76
$GPGSV,4,2,13,13,06,197,,14,22,118,33,17,17,055,30,19,31,036,30*74
$GPGSV,4,3,13,20,39,160,34,21,29,157,33,22,38,105,36,24,41,270,*73
$GPGSV,4,4,13,42,13,097,38*4A
$GPGLL,1907.39592,N,07250.19049,E,115034.00,A,A*65
$GPRMC,115035.00,A,1907.39568,N,07250.18856,E,0.507,,080126,,,A*70
$GPVTG,,T,,M,0.507,N,0.938,K,A*23
$GPGGA,115035.00,1907.39568,N,07250.18856,E,1,05,6.63,22.8,M,-65.6,M,,*45
$GPGSA,A,3,06,22,19,14,17,,,,,,,,8.87,6.63,5.89*0F
$GPGSV,4,1,13,05,13,184,,06,54,027,27,11,76,242,,12,27,326,*77
$GPGSV,4,2,13,13,06,197,,14,22,118,33,17,17,055,30,19,31,036,30*74
$GPGSV,4,3,13,20,39,160,33,21,29,157,33,22,38,105,36,24,41,270,*74
$GPGSV,4,4,13,42,13,097,38*4A
$GPGLL,1907.39568,N,07250.18856,E,115035.00,A,A*66
$GPRMC,115036.00,A,1907.39548,N,07250.18746,E,0.256,,080126,,,A*7C
$GPVTG,,T,,M,0.256,N,0.474,K,A*25
$GPGGA,115036.00,1907.39548,N,07250.18746,E,1,05,6.63,23.0,M,-65.6,M,,*43
$GPGSA,A,3,06,22,19,14,17,,,,,,,,8.86,6.63,5.89*0E
$GPGSV,4,1,13,05,13,184,,06,54,027,27,11,76,242,,12,27,326,*77
$GPGSV,4,2,13,13,06,197,,14,22,118,33,17,17,055,29,19,31,036,30*7C
$GPGSV,4,3,13,20,39,160,33,21,29,157,33,22,38,105,36,24,41,270,*74
$GPGSV,4,4,13,42,13,097,38*4A
$GPGLL,1907.39548,N,07250.18746,E,115036.00,A,A*69
$GPRMC,115037.00,A,1907.39524,N,07250.18590,E,0.171,,080126,,,A*78
$GPVTG,,T,,M,0.171,N,0.317,K,A*21
$GPGGA,115037.00,1907.39524,N,07250.18590,E,1,05,6.62,23.1,M,-65.6,M,,*41
$GPGSA,A,3,06,22,19,14,17,,,,,,,,8.86,6.62,5.89*0F
$GPGSV,4,1,13,05,13,184,,06,54,027,27,11,76,242,,12,27,326,*77
$GPGSV,4,2,13,13,06,197,,14,22,118,33,17,17,055,29,19,31,036,30*7C
$GPGSV,4,3,13,20,39,160,34,21,29,157,33,22,38,105,36,24,41,270,*73
$GPGSV,4,4,13,42,13,097,38*4A
$GPGLL,1907.39524,N,07250.18590,E,115037.00,A,A*6B
$GPRMC,115038.00,A,1907.39518,N,07250.18569,E,0.072,,080126,,,A*7C
$GPVTG,,T,,M,0.072,N,0.134,K,A*20
$GPGGA,115038.00,1907.39518,N,07250.18569,E,1,05,6.62,23.2,M,-65.6,M,,*44
$GPGSA,A,3,06,22,19,14,17,,,,,,,,8.86,6.62,5.89*0F
$GPGSV,4,1,13,05,13,184,,06,54,027,27,11,76,242,,12,27,326,*77
$GPGSV,4,2,13,13,06,197,,14,22,118,33,17,17,055,30,19,31,036,30*74
$GPGSV,4,3,13,20,39,160,34,21,29,157,33,22,38,105,35,24,41,270,*70
$GPGSV,4,4,13,42,13,097,38*4A
$GPGLL,1907.39518,N,07250.18569,E,115038.00,A,A*6D
$GPRMC,115039.00,A,1907.39518,N,07250.18572,E,0.082,,080126,,,A*78
$GPVTG,,T,,M,0.082,N,0.152,K,A*2F
$GPGGA,115039.00,1907.39518,N,07250.18572,E,1,05,6.62,23.2,M,-65.6,M,,*4F
$GPGSA,A,3,06,22,19,14,17,,,,,,,,8.86,6.62,5.89*0F
$GPGSV,4,1,13,05,13,184,,06,54,027,27,11,76,242,,12,27,326,*77
$GPGSV,4,2,13,13,06,197,,14,22,118,33,17,17,055,30,19,31,036,30*74
$GPGSV,4,3,13,20,39,160,34,21,29,157,33,22,38,105,35,24,41,270,*70
$GPGSV,4,4,13,42,13,097,38*4A
$GPGLL,1907.39518,N,07250.18572,E,115039.00,A,A*66
$GPRMC,115040.00,A,1907.39514,N,07250.18564,E,0.711,,080126,,,A*70
$GPVTG,,T,,M,0.711,N,1.317,K,A*20
$GPGGA,115040.00,1907.39514,N,07250.18564,E,1,05,6.62,23.2,M,-65.6,M,,*4A
$GPGSA,A,3,06,22,19,14,17,,,,,,,,8.86,6.62,5.89*0F
$GPGSV,4,1,13,05,13,184,,06,54,027,27,11,76,242,,12,27,326,*77
$GPGSV,4,2,13,13,06,197,,14,22,118,33,17,17,055,29,19,31,036,30*7C
$GPGSV,4,3,13,20,39,160,34,21,29,157,33,22,38,105,36,24,41,270,*73
$GPGSV,4,4,13,42,13,097,38*4A
$GPGLL,1907.39514,N,07250.18564,E,115040.00,A,A*63
$GPRMC,115041.00,A,1907.39509,N,07250.18554,E,0.694,,080126,,,A*72
$GPVTG,,T,,M,0.694,N,1.286,K,A*25
$GPGGA,115041.00,1907.39509,N,07250.18554,E,1,05,6.62,23.2,M,-65.6,M,,*44
$GPGSA,A,3,06,22,19,14,17,,,,,,,,8.86,6.62,5.89*0F
$GPGSV,4,1,13,05,13,184,,06,54,027,27,11,76,242,,12,27,326,*77
$GPGSV,4,2,13,13,06,197,,14,22,118,33,17,17,055,29,19,31,036,30*7C
$GPGSV,4,3,13,20,39,160,34,21,29,157,33,22,38,105,36,24,41,270,*73
$GPGSV,4,4,13,42,13,097,38*4A
$GPGLL,1907.39509,N,07250.18554,E,115041.00,A,A*6D
$GPRMC,115042.00,A,1907.39503,N,07250.18544,E,0.365,,080126,,,A*71
$GPVTG,,T,,M,0.365,N,0.676,K,A*24
$GPGGA,115042.00,1907.39503,N,07250.18544,E,1,05,6.62,23.2,M,-65.6,M,,*4C
$GPGSA,A,3,06,22,19,14,17,,,,,,,,8.86,6.62,5.89*0F
$GPGSV,4,1,13,05,13,184,,06,54,027,27,11,76,242,,12,27,326,*77
$GPGSV,4,2,13,13,06,197,,14,22,118,33,17,17,055,29,19,31,036,30*7C
$GPGSV,4,3,13,20,39,160,34,21,29,157,34,22,38,105,36,24,41,270,*74
$GPGSV,4,4,13,42,13,097,38*4A
$GPGLL,1907.39503,N,07250.18544,E,115042.00,A,A*65
$GPRMC,115043.00,A,1907.39507,N,07250.18566,E,1.344,,080126,,,A*76
$GPVTG,,T,,M,1.344,N,2.490,K,A*2E
$GPGGA,115043.00,1907.39507,N,07250.18566,E,1,05,6.62,23.3,M,-65.6,M,,*48
$GPGSA,A,3,06,22,19,14,17,,,,,,,,8.86,6.62,5.89*0F
$GPGSV,4,1,13,05,13,184,,06,54,027,28,11,76,242,,12,27,326,*78
$GPGSV,4,2,13,13,06,197,,14,22,118,32,17,17,055,29,19,31,036,30*7D
$GPGSV,4,3,13,20,39,160,34,21,29,157,33,22,38,105,36,24,41,270,*73
$GPGSV,4,4,13,42,13,097,39*4B
$GPGLL,1907.39507,N,07250.18566,E,115043.00,A,A*60
$GPRMC,115044.00,A,1907.39514,N,07250.18605,E,3.418,311.69,080126,,,A*6B
$GPVTG,311.69,T,,M,3.418,N,6.330,K,A*39
$GPGGA,115044.00,1907.39514,N,07250.18605,E,1,05,6.62,23.4,M,-65.6,M,,*4C
$GPGSA,A,3,06,22,19,14,17,,,,,,,,8.86,6.62,5.89*0F
$GPGSV,4,1,13,05,13,184,,06,54,027,28,11,76,242,,12,27,326,*78
$GPGSV,4,2,13,13,06,197,,14,22,118,32,17,17,055,29,19,31,036,30*7D
$GPGSV,4,3,13,20,39,160,34,21,29,157,34,22,38,105,36,24,41,270,*74
$GPGSV,4,4,13,42,13,097,38*4A
$GPGLL,1907.39514,N,07250.18605,E,115044.00,A,A*63
$GPRMC,115045.00,A,1907.39518,N,07250.18611,E,4.143,280.20,080126,,,A*6B
$GPVTG,280.20,T,,M,4.143,N,7.672,K,A*33
$GPGGA,115045.00,1907.39518,N,07250.18611,E,1,05,6.62,23.3,M,-65.6,M,,*43
$GPGSA,A,3,06,22,19,14,17,,,,,,,,8.86,6.62,5.89*0F
$GPGSV,4,1,13,05,13,184,,06,54,027,28,11,76,242,,12,27,326,*78
$GPGSV,4,2,13,13,06,197,,14,22,118,32,17,17,055,29,19,31,036,30*7D
$GPGSV,4,3,13,20,39,160,35,21,29,157,33,22,38,105,36,24,41,270,*72
$GPGSV,4,4,13,42,13,097,39*4B
$GPGLL,1907.39518,N,07250.18611,E,115045.00,A,A*6B
$GPRMC,115046.00,A,1907.39515,N,07250.18616,E,4.603,266.52,080126,,,A*6C
$GPVTG,266.52,T,,M,4.603,N,8.526,K,A*30
$GPGGA,115046.00,1907.39515,N,07250.18616,E,1,05,6.62,23.4,M,-65.6,M,,*4D
$GPGSA,A,3,06,22,19,14,17,,,,,,,,8.86,6.62,5.89*0F
$GPGSV,4,1,13,05,13,184,,06,54,027,28,11,76,242,,12,27,326,*78
$GPGSV,4,2,13,13,06,197,,14,22,118,32,17,17,055,29,19,31,036,30*7D
$GPGSV,4,3,13,20,39,160,35,21,29,157,34,22,38,105,36,24,41,270,*75
$GPGSV,4,4,13,42,13,097,39*4B
$GPGLL,1907.39515,N,07250.18616,E,115046.00,A,A*62
$GPRMC,115047.00,A,1907.39515,N,07250.18622,E,3.478,262.95,080126,,,A*6C
$GPVTG,262.95,T,,M,3.478,N,6.441,K,A*38
$GPGGA,115047.00,1907.39515,N,07250.18622,E,1,05,6.62,23.5,M,-65.6,M,,*4A
$GPGSA,A,3,06,22,19,14,17,,,,,,,,8.86,6.62,5.89*0F
$GPGSV,4,1,13,05,13,184,,06,54,027,28,11,76,242,,12,27,326,*78
$GPGSV,4,2,13,13,06,197,,14,22,118,32,17,17,055,29,19,31,036,30*7D
$GPGSV,4,3,13,20,39,160,35,21,29,157,33,22,38,105,36,24,41,270,*72
$GPGSV,4,4,13,42,13,097,39*4B
$GPGLL,1907.39515,N,07250.18622,E,115047.00,A,A*64
$GPRMC,115048.00,A,1907.39511,N,07250.18631,E,4.087,259.97,080126,,,A*6C
$GPVTG,259.97,T,,M,4.087,N,7.570,K,A*33
$GPGGA,115048.00,1907.39511,N,07250.18631,E,1,05,6.62,23.5,M,-65.6,M,,*43
$GPGSA,A,3,06,22,19,14,17,,,,,,,,8.85,6.62,5.88*0D
$GPGSV,4,1,13,05,13,184,,06,54,027,28,11,76,242,,12,27,326,*78
$GPGSV,4,2,13,13,06,197,,14,22,118,32,17,17,055,29,19,31,036,30*7D
$GPGSV,4,3,13,20,39,160,34,21,29,157,33,22,38,105,36,24,41,270,*73
$GPGSV,4,4,13,42,13,097,38*4A
$GPGLL,1907.39511,N,07250.18631,E,115048.00,A,A*6D
$GPRMC,115049.00,A,1907.39519,N,07250.18649,E,4.354,257.31,080126,,,A*65
$GPVTG,257.31,T,,M,4.354,N,8.064,K,A*33
$GPGGA,115049.00,1907.39519,N,07250.18649,E,1,05,6.62,23.5,M,-65.6,M,,*45
$GPGSA,A,3,06,22,19,14,17,,,,,,,,8.85,6.62,5.88*0D
$GPGSV,4,1,13,05,13,184,,06,54,027,29,11,76,242,,12,27,326,*79
$GPGSV,4,2,13,13,06,197,,14,22,118,32,17,17,055,29,19,31,036,30*7D
$GPGSV,4,3,13,20,39,160,35,21,29,157,33,22,38,105,36,24,41,270,*72
$GPGSV,4,4,13,42,60,135,38*47
$GPGLL,1907.39519,N,07250.18649,E,115049.00,A,A*6B
$GPRMC,115050.00,A,1907.39523,N,07250.18669,E,4.431,256.39,080126,,,A*6B
$GPVTG,256.39,T,,M,4.431,N,8.205,K,A*3B
$GPGGA,115050.00,1907.39523,N,07250.18669,E,1,05,6.62,23.4,M,-65.6,M,,*47
$GPGSA,A,3,06,22,19,14,17,,,,,,,,8.85,6.62,5.88*0D
$GPGSV,4,1,13,05,13,184,,06,54,027,29,11,76,242,,12,27,326,*79
$GPGSV,4,2,13,13,06,197,,14,22,118,32,17,17,055,29,19,31,036,30*7D
$GPGSV,4,3,13,20,39,160,35,21,29,157,33,22,38,105,36,24,41,270,*72
$GPGSV,4,4,13,42,60,135,38*47
$GPGLL,1907.39523,N,07250.18669,E,115050.00,A,A*68
$GPRMC,115051.00,A,1907.39527,N,07250.18701,E,3.193,256.11,080126,,,A*61
$GPVTG,256.11,T,,M,3.193,N,5.914,K,A*3D
$GPGGA,115051.00,1907.39527,N,07250.18701,E,1,05,6.61,23.5,M,-65.6,M,,*4F
$GPGSA,A,3,06,22,19,14,17,,,,,,,,8.85,6.61,5.88*0E
$GPGSV,4,1,13,05,13,184,,06,54,027,29,11,76,242,,12,27,326,*79
$GPGSV,4,2,13,13,06,197,,14,22,118,32,17,17,055,29,19,31,036,30*7D
$GPGSV,4,3,13,20,39,160,35,21,29,157,33,22,38,105,36,24,41,270,*72
$GPGSV,4,4,13,42,60,135,38*47
$GPGLL,1907.39527,N,07250.18701,E,115051.00,A,A*62
$GPRMC,115052.00,A,1907.39530,N,07250.18731,E,2.054,256.26,080126,,,A*68
$GPVTG,256.26,T,,M,2.054,N,3.804,K,A*34
$GPGGA,115052.00,1907.39530,N,07250.18731,E,1,05,6.61,23.6,M,-65.6,M,,*4A
$GPGSA,A,3,06,22,19,14,17,,,,,,,,8.85,6.61,5.88*0E
$GPGSV,4,1,13,05,13,184,,06,54,027,29,11,76,242,,12,27,326,*79
$GPGSV,4,2,13,13,06,197,,14,22,118,32,17,17,055,29,19,31,036,29*75
$GPGSV,4,3,13,20,39,160,35,21,29,157,33,22,38,105,36,24,41,270,*72
$GPGSV,4,4,13,42,60,135,38*47
$GPGLL,1907.39530,N,07250.18731,E,115052.00,A,A*64
$GPRMC,115053.00,A,1907.39536,N,07250.18770,E,2.386,259.16,080126,,,A*6A
$GPVTG,259.16,T,,M,2.386,N,4.419,K,A*33
$GPGGA,115053.00,1907.39536,N,07250.18770,E,1,05,6.61,23.5,M,-65.6,M,,*4B
$GPGSA,A,3,06,22,19,14,17,,,,,,,,8.85,6.61,5.88*0E
$GPGSV,4,1,13,05,13,184,,06,54,027,29,11,76,242,,12,27,326,*79
$GPGSV,4,2,13,13,06,197,,14,22,118,31,17,17,055,30,19,31,036,29*7E
$GPGSV,4,3,13,20,39,160,35,21,29,157,33,22,38,105,36,24,41,270,*72
$GPGSV,4,4,13,42,60,135,38*47
$GPGLL,1907.39536,N,07250.18770,E,115053.00,A,A*66
$GPRMC,115054.00,A,1907.39537,N,07250.18813,E,2.792,255.95,080126,,,A*60
$GPVTG,255.95,T,,M,2.792,N,5.171,K,A*3F
$GPGGA,115054.00,1907.39537,N,07250.18813,E,1,05,6.61,23.7,M,-65.6,M,,*45
$GPGSA,A,3,06,22,19,14,17,,,,,,,,8.85,6.61,5.88*0E
$GPGSV,4,1,13,05,13,184,,06,54,027,29,11,76,242,,12,27,326,*79
$GPGSV,4,2,13,13,06,197,,14,22,118,32,17,17,055,30,19,31,036,29*7D
$GPGSV,4,3,13,20,39,160,35,21,29,157,33,22,38,105,36,24,41,270,*72
$GPGSV,4,4,13,42,60,135,38*47
$GPGLL,1907.39537,N,07250.18813,E,115054.00,A,A*6A
$GPRMC,115055.00,A,1907.39476,N,07250.18627,E,0.972,,080126,,,A*7E
$GPVTG,,T,,M,0.972,N,1.800,K,A*26
$GPGGA,115055.00,1907.39476,N,07250.18627,E,1,06,2.83,21.8,M,-65.6,M,,*4F
$GPGSA,A,3,06,22,19,14,20,17,,,,,,,4.73,2.83,3.79*09
$GPGSV,4,1,13,05,13,184,,06,54,027,30,11,76,242,,12,27,326,*71
$GPGSV,4,2,13,13,06,197,,14,22,118,32,17,17,055,29,19,31,036,30*7D
$GPGSV,4,3,13,20,39,160,35,21,29,157,33,22,38,105,36,24,41,270,*72
$GPGSV,4,4,13,42,60,135,38*47
$GPGLL,1907.39476,N,07250.18627,E,115055.00,A,A*66
$GPRMC,115056.00,A,1907.39461,N,07250.18584,E,0.330,,080126,,,A*7D
$GPVTG,,T,,M,0.330,N,0.610,K,A*24
$GPGGA,115056.00,1907.39461,N,07250.18584,E,1,06,2.83,21.3,M,-65.6,M,,*4B
$GPGSA,A,3,06,22,19,14,20,17,,,,,,,4.73,2.83,3.79*09
$GPGSV,4,1,13,05,13,184,,06,54,027,30,11,76,242,,12,27,326,*71
$GPGSV,4,2,13,13,06,197,,14,22,118,32,17,17,055,29,19,31,036,30*7D
$GPGSV,4,3,13,20,39,160,35,21,29,157,33,22,38,105,36,24,41,270,*72
$GPGSV,4,4,13,42,60,135,38*47
$GPGLL,1907.39461,N,07250.18584,E,115056.00,A,A*69
$GPRMC,115057.00,A,1907.39451,N,07250.18556,E,0.089,,080126,,,A*71
$GPVTG,,T,,M,0.089,N,0.164,K,A*21
$GPGGA,115057.00,1907.39451,N,07250.18556,E,1,06,2.83,20.8,M,-65.6,M,,*4C
$GPGSA,A,3,06,22,19,14,20,17,,,,,,,4.73,2.83,3.79*09
$GPGSV,4,1,13,05,13,184,,06,54,027,30,11,76,242,,12,27,326,*71
$GPGSV,4,2,13,13,06,197,,14,22,118,31,17,17,055,29,19,31,036,29*76
$GPGSV,4,3,13,20,39,160,35,21,29,157,33,22,38,105,36,24,41,270,*72
$GPGSV,4,4,13,42,60,135,38*47
$GPGLL,1907.39451,N,07250.18556,E,115057.00,A,A*64
$GPRMC,115058.00,A,1907.39444,N,07250.18527,E,0.200,,080126,,,A*7F
$GPVTG,,T,,M,0.200,N,0.370,K,A*25
$GPGGA,115058.00,1907.39444,N,07250.18527,E,1,06,2.83,20.3,M,-65.6,M,,*4A
$GPGSA,A,3,06,22,19,14,20,17,,,,,,,4.73,2.83,3.79*09
$GPGSV,4,1,13,05,13,184,,06,54,027,30,11,76,242,,12,27,326,18*78
$GPGSV,4,2,13,13,06,197,,14,22,118,31,17,17,055,29,19,31,036,29*76
$GPGSV,4,3,13,20,39,160,35,21,29,157,33,22,38,105,36,24,41,270,*72
$GPGSV,4,4,13,42,60,135,39*46
$GPGLL,1907.39444,N,07250.18527,E,115058.00,A,A*69
$GPRMC,115059.00,A,1907.39436,N,07250.18508,E,0.211,,080126,,,A*76
$GPVTG,,T,,M,0.211,N,0.391,K,A*2A
$GPGGA,115059.00,1907.39436,N,07250.18508,E,1,06,2.83,20.1,M,-65.6,M,,*41
$GPGSA,A,3,06,22,19,14,20,17,,,,,,,4.73,2.83,3.79*09
$GPGSV,4,1,13,05,13,184,,06,54,027,29,11,76,242,,12,27,326,18*70
$GPGSV,4,2,13,13,06,197,,14,22,118,31,17,17,055,29,19,31,036,29*76
$GPGSV,4,3,13,20,39,160,35,21,29,157,33,22,38,105,36,24,41,270,*72
$GPGSV,4,4,13,42,60,135,39*46
$GPGLL,1907.39436,N,07250.18508,E,115059.00,A,A*60
$GPRMC,115100.00,A,1907.39432,N,07250.18484,E,0.168,,080126,,,A*77
$GPVTG,,T,,M,0.168,N,0.312,K,A*2C
$GPGGA,115100.00,1907.39432,N,07250.18484,E,1,06,2.83,19.7,M,-65.6,M,,*41
$GPGSA,A,3,06,22,19,14,20,17,,,,,,,4.74,2.83,3.79*0E
$GPGSV,4,1,13,05,13,184,,06,54,027,29,11,76,242,,12,27,326,17*7F
$GPGSV,4,2,13,13,06,197,,14,22,118,31,17,17,055,29,19,31,036,30*7E
$GPGSV,4,3,13,20,39,160,35,21,29,157,33,22,38,105,36,24,41,270,*72
$GPGSV,4,4,13,42,60,135,38*47
$GPGLL,1907.39432,N,07250.18484,E,115100.00,A,A*6C
$GPRMC,115101.00,A,1907.39432,N,07250.18466,E,0.447,,080126,,,A*72
$GPVTG,,T,,M,0.447,N,0.829,K,A*27
$GPGGA,115101.00,1907.39432,N,07250.18466,E,1,07,2.39,19.5,M,-65.6,M,,*4E
$GPGSA,A,3,06,22,19,14,20,17,21,,,,,,4.10,2.39,3.33*00
$GPGSV,4,1,13,05,13,184,,06,54,027,29,11,76,242,,12,27,326,18*70
$GPGSV,4,2,13,13,06,197,,14,22,118,32,17,17,055,29,19,31,036,29*75
$GPGSV,4,3,13,20,39,160,35,21,29,157,33,22,38,105,36,24,41,270,*72
$GPGSV,4,4,13,42,60,135,39*46
$GPGLL,1907.39432,N,07250.18466,E,115101.00,A,A*61
$GPRMC,115102.00,A,1907.39428,N,07250.18455,E,0.521,,080126,,,A*7B
$GPVTG,,T,,M,0.521,N,0.965,K,A*2F
$GPGGA,115102.00,1907.39428,N,07250.18455,E,1,07,2.39,19.3,M,-65.6,M,,*40
$GPGSA,A,3,06,22,19,14,20,17,21,,,,,,4.10,2.39,3.33*00
$GPGSV,4,1,13,05,13,184,,06,54,027,29,11,76,242,,12,27,326,16*7E
$GPGSV,4,2,13,13,06,197,,14,22,118,32,17,17,055,30,19,31,036,29*7D
$GPGSV,4,3,13,20,39,160,35,21,29,157,33,22,38,105,36,24,41,270,*72
$GPGSV,4,4,13,42,60,135,38*47
$GPGLL,1907.39428,N,07250.18455,E,115102.00,A,A*69
$GPRMC,115103.00,A,1907.39425,N,07250.18443,E,0.389,,080126,,,A*74
$GPVTG,,T,,M,0.389,N,0.720,K,A*24
$GPGGA,115103.00,1907.39425,N,07250.18443,E,1,07,2.40,19.1,M,-65.6,M,,*47
$GPGSA,A,3,06,22,19,14,20,17,21,,,,,,4.10,2.40,3.33*0E
$GPGSV,4,1,13,05,13,184,,06,54,027,29,11,76,242,,12,27,326,16*7E
$GPGSV,4,2,13,13,06,197,,14,22,118,32,17,17,055,29,19,31,036,29*75
$GPGSV,4,3,13,20,39,160,35,21,29,157,33,22,38,105,36,24,41,270,*72
$GPGSV,4,4,13,42,60,135,38*47
$GPGLL,1907.39425,N,07250.18443,E,115103.00,A,A*62
$GPRMC,115104.00,A,1907.39422,N,07250.18428,E,0.285,,080126,,,A*74
$GPVTG,,T,,M,0.285,N,0.528,K,A*23
$GPGGA,115104.00,1907.39422,N,07250.18428,E,1,07,2.40,18.9,M,-65.6,M,,*43
$GPGSA,A,3,06,22,19,14,20,17,21,,,,,,4.10,2.40,3.33*0E
$GPGSV,4,1,13,05,13,184,,06,54,027,29,11,76,242,,12,27,326,16*7E
$GPGSV,4,2,13,13,06,197,,14,22,118,32,17,17,055,29,19,31,036,29*75
$GPGSV,4,3,13,20,39,160,35,21,29,157,34,22,38,105,36,24,41,270,*75
$GPGSV,4,4,13,42,60,135,39*46
$GPGLL,1907.39422,N,07250.18428,E,115104.00,A,A*6F
$GPRMC,115105.00,A,1907.39417,N,07250.18420,E,0.134,,080126,,,A*72
$GPVTG,,T,,M,0.134,N,0.247,K,A*24
$GPGGA,115105.00,1907.39417,N,07250.18420,E,1,07,2.40,18.6,M,-65.6,M,,*43
$GPGSA,A,3,06,22,19,14,20,17,21,,,,,,4.10,2.40,3.33*0E
$GPGSV,4,1,13,05,13,184,,06,54,027,29,11,76,242,,12,27,326,15*7D
$GPGSV,4,2,13,13,06,197,,14,22,118,32,17,17,055,29,19,31,036,30*7D
$GPGSV,4,3,13,20,39,160,35,21,29,157,33,22,38,105,36,24,41,270,*72
$GPGSV,4,4,13,42,60,135,38*47
$GPGLL,1907.39417,N,07250.18420,E,115105.00,A,A*60
$GPRMC,115106.00,A,1907.39411,N,07250.18411,E,0.156,,080126,,,A*71
$GPVTG,,T,,M,0.156,N,0.289,K,A*22
$GPGGA,115106.00,1907.39411,N,07250.18411,E,1,07,2.40,18.5,M,-65.6,M,,*47
$GPGSA,A,3,06,22,19,14,20,17,21,,,,,,4.10,2.40,3.33*0E
$GPGSV,4,1,13,05,13,184,,06,54,027,29,11,76,242,,12,27,326,14*7C
$GPGSV,4,2,13,13,06,197,,14,22,118,32,17,17,055,29,19,31,036,30*7D
$GPGSV,4,3,13,20,39,160,35,21,29,157,33,22,38,105,36,24,41,270,*72
$GPGSV,4,4,13,42,60,135,39*46
$GPGLL,1907.39411,N,07250.18411,E,115106.00,A,A*67
$GPRMC,115107.00,A,1907.39412,N,07250.18400,E,0.340,,080126,,,A*76
$GPVTG,,T,,M,0.340,N,0.630,K,A*21
$GPGGA,115107.00,1907.39412,N,07250.18400,E,1,07,2.40,18.3,M,-65.6,M,,*43
$GPGSA,A,3,06,22,19,14,20,17,21,,,,,,4.11,2.40,3.33*0F
$GPGSV,4,1,13,05,13,184,,06,54,027,29,11,76,242,,12,27,326,15*7D
$GPGSV,4,2,13,13,06,197,,14,22,118,32,17,17,055,29,19,31,036,30*7D
$GPGSV,4,3,13,20,39,160,35,21,29,157,33,22,38,105,36,24,41,270,*72
$GPGSV,4,4,13,42,60,135,39*46
$GPGLL,1907.39412,N,07250.18400,E,115107.00,A,A*65
$GPRMC,115108.00,A,1907.39409,N,07250.18394,E,0.212,,080126,,,A*7F
$GPVTG,,T,,M,0.212,N,0.392,K,A*2A
$GPGGA,115108.00,1907.39409,N,07250.18394,E,1,07,2.40,18.1,M,-65.6,M,,*4E
$GPGSA,A,3,06,22,19,14,20,17,21,,,,,,4.11,2.40,3.33*0F
$GPGSV,4,1,13,05,13,184,,06,54,027,29,11,76,242,,12,27,326,15*7D
$GPGSV,4,2,13,13,06,197,,14,22,118,32,17,17,055,29,19,31,036,30*7D
$GPGSV,4,3,13,20,39,160,35,21,29,157,34,22,38,105,36,24,41,270,*75
$GPGSV,4,4,13,42,60,135,39*46
$GPGLL,1907.39409,N,07250.18394,E,115108.00,A,A*6A
$GPRMC,115109.00,A,1907.39408,N,07250.18386,E,0.269,,080126,,,A*70
$GPVTG,,T,,M,0.269,N,0.498,K,A*2B
$GPGGA,115109.00,1907.39408,N,07250.18386,E,1,07,2.40,18.0,M,-65.6,M,,*4C
$GPGSA,A,3,06,22,19,14,20,17,21,,,,,,4.11,2.40,3.33*0F
$GPGSV,4,1,13,05,13,184,,06,54,027,29,11,76,242,,12,27,326,16*7E
$GPGSV,4,2,13,13,06,197,,14,22,118,32,17,17,055,29,19,31,036,30*7D
$GPGSV,4,3,13,20,39,160,35,21,29,157,34,22,38,105,36,24,41,270,*75
$GPGSV,4,4,13,42,60,135,39*46
$GPGLL,1907.39408,N,07250.18386,E,115109.00,A,A*69
$GPRMC,115110.00,A,1907.39405,N,07250.18380,E,0.183,,080126,,,A*74
$GPVTG,,T,,M,0.183,N,0.340,K,A*2E
$GPGGA,115110.00,1907.39405,N,07250.18380,E,1,07,2.40,18.0,M,-65.6,M,,*4F
$GPGSA,A,3,06,22,19,14,20,17,21,,,,,,4.11,2.40,3.33*0F
$GPGSV,4,1,13,05,13,184,,06,54,027,29,11,76,242,,12,27,326,16*7E
$GPGSV,4,2,13,13,06,197,,14,22,118,33,17,17,055,29,19,31,036,30*7C
$GPGSV,4,3,13,20,39,160,35,21,29,157,34,22,38,105,36,24,41,270,*75
$GPGSV,4,4,13,42,60,135,39*46
$GPGLL,1907.39405,N,07250.18380,E,115110.00,A,A*6A
$GPRMC,115111.00,A,1907.39401,N,07250.18378,E,0.140,,080126,,,A*79
$GPVTG,,T,,M,0.140,N,0.259,K,A*28
$GPGGA,115111.00,1907.39401,N,07250.18378,E,1,07,2.40,17.9,M,-65.6,M,,*4B
$GPGSA,A,3,06,22,19,14,20,17,21,,,,,,4.11,2.40,3.34*08
$GPGSV,4,1,13,05,13,184,,06,54,027,29,11,76,242,,12,27,326,15*7D
$GPGSV,4,2,13,13,06,197,,14,22,118,33,17,17,055,29,19,31,036,30*7C
$GPGSV,4,3,13,20,39,160,35,21,29,157,34,22,38,105,36,24,41,270,*75
$GPGSV,4,4,13,42,60,135,39*46
$GPGLL,1907.39401,N,07250.18378,E,115111.00,A,A*68
$GPRMC,115112.00,A,1907.39398,N,07250.18376,E,0.156,,080126,,,A*74
$GPVTG,,T,,M,0.156,N,0.288,K,A*23
$GPGGA,115112.00,1907.39398,N,07250.18376,E,1,07,2.40,18.0,M,-65.6,M,,*47
$GPGSA,A,3,06,22,19,14,20,17,21,,,,,,4.11,2.40,3.34*08
$GPGSV,4,1,13,05,13,184,,06,54,027,29,11,76,242,,12,27,326,14*7C
$GPGSV,4,2,13,13,06,197,,14,22,118,34,17,17,055,29,19,31,036,30*7B
$GPGSV,4,3,13,20,39,160,35,21,29,157,34,22,38,105,36,24,41,270,*75
$GPGSV,4,4,13,42,60,135,39*46
$GPGLL,1907.39398,N,07250.18376,E,115112.00,A,A*62
$GPRMC,115113.00,A,1907.39397,N,07250.18373,E,0.215,,080126,,,A*7B
$GPVTG,,T,,M,0.215,N,0.399,K,A*26
$GPGGA,115113.00,1907.39397,N,07250.18373,E,1,07,2.40,17.9,M,-65.6,M,,*4A
$GPGSA,A,3,06,22,19,14,20,17,21,,,,,,4.11,2.40,3.34*08
$GPGSV,4,1,13,05,13,184,,06,54,027,29,11,76,242,,12,27,326,12*7A
$GPGSV,4,2,13,13,06,197,,14,22,118,33,17,17,055,28,19,31,036,30*7D
$GPGSV,4,3,13,20,39,160,35,21,29,157,34,22,38,105,36,24,41,270,*75
$GPGSV,4,4,13,42,60,135,39*46
$GPGLL,1907.39397,N,07250.18373,E,115113.00,A,A*69
$GPRMC,115114.00,A,1907.39394,N,07250.18372,E,0.182,,080126,,,A*73
$GPVTG,,T,,M,0.182,N,0.336,K,A*2E
$GPGGA,115114.00,1907.39394,N,07250.18372,E,1,07,2.40,17.9,M,-65.6,M,,*4F
$GPGSA,A,3,06,22,19,14,20,17,21,,,,,,4.11,2.40,3.34*08
$GPGSV,4,1,13,05,13,184,,06,53,027,29,11,76,242,,12,27,326,12*7D
$GPGSV,4,2,13,13,06,197,,14,22,118,33,17,17,055,29,19,31,036,30*7C
$GPGSV,4,3,13,20,39,160,35,21,29,157,34,22,38,105,36,24,41,270,*75
$GPGSV,4,4,13,42,60,135,39*46
$GPGLL,1907.39394,N,07250.18372,E,115114.00,A,A*6C
$GPRMC,115115.00,A,1907.39392,N,07250.18374,E,0.082,,080126,,,A*73
$GPVTG,,T,,M,0.082,N,0.152,K,A*2F
$GPGGA,115115.00,1907.39392,N,07250.18374,E,1,07,2.41,17.8,M,-65.6,M,,*4E
$GPGSA,A,3,06,22,19,14,20,17,21,,,,,,4.12,2.41,3.34*0A
$GPGSV,4,1,13,05,13,184,,06,53,027,29,11,76,242,,12,27,326,11*7E
$GPGSV,4,2,13,13,06,197,,14,22,118,33,17,17,055,29,19,31,036,30*7C
$GPGSV,4,3,13,20,39,160,35,21,29,157,34,22,38,105,36,24,41,270,*75
$GPGSV,4,4,13,42,60,135,39*46
$GPGLL,1907.39392,N,07250.18374,E,115115.00,A,A*6D
$GPRMC,115116.00,A,1907.39391,N,07250.18373,E,0.055,,080126,,,A*7E
$GPVTG,,T,,M,0.055,N,0.102,K,A*20
$GPGGA,115116.00,1907.39391,N,07250.18373,E,1,07,2.41,17.7,M,-65.6,M,,*46
$GPGSA,A,3,06,22,19,14,20,17,21,,,,,,4.12,2.41,3.34*0A
$GPGSV,4,1,14,05,13,184,,06,53,027,29,11,76,242,,12,27,326,09*70
$GPGSV,4,2,14,13,06,197,,14,22,118,33,17,17,055,29,19,31,036,30*7B
$GPGSV,4,3,14,20,39,160,35,21,29,157,34,22,38,105,36,24,41,270,*72
$GPGSV,4,4,14,42,60,135,39,50,08,095,33*70
$GPGLL,1907.39391,N,07250.18373,E,115116.00,A,A*6A
$GPRMC,115117.00,A,1907.39391,N,07250.18371,E,0.028,,080126,,,A*77
$GPVTG,,T,,M,0.028,N,0.051,K,A*2D
$GPGGA,115117.00,1907.39391,N,07250.18371,E,1,07,2.41,17.6,M,-65.6,M,,*44
$GPGSA,A,3,06,22,19,14,20,17,21,,,,,,4.12,2.41,3.34*0A
$GPGSV,4,1,14,05,13,184,,06,53,027,29,11,76,242,,12,27,326,08*71
$GPGSV,4,2,14,13,06,197,,14,22,118,33,17,17,055,29,19,31,036,30*7B
$GPGSV,4,3,14,20,39,160,35,21,29,157,34,22,38,105,36,24,41,270,*72
$GPGSV,4,4,14,42,60,135,39,50,08,095,33*70
$GPGLL,1907.39391,N,07250.18371,E,115117.00,A,A*69
$GPRMC,115118.00,A,1907.39390,N,07250.18369,E,0.063,,080126,,,A*7F
$GPVTG,,T,,M,0.063,N,0.116,K,A*20
$GPGGA,115118.00,1907.39390,N,07250.18369,E,1,07,2.41,17.5,M,-65.6,M,,*40
$GPGSA,A,3,06,22,19,14,20,17,21,,,,,,4.12,2.41,3.34*0A
$GPGSV,4,1,14,05,13,184,,06,53,027,29,11,76,242,,12,27,326,08*71
$GPGSV,4,2,14,13,06,197,,14,22,118,33,17,17,055,29,19,31,036,29*73
$GPGSV,4,3,14,20,39,160,35,21,29,157,34,22,38,105,36,24,41,270,*72
$GPGSV,4,4,14,42,60,135,39,50,08,095,33*70
$GPGLL,1907.39390,N,07250.18369,E,115118.00,A,A*6E
$GPRMC,115119.00,A,1907.39389,N,07250.18370,E,0.131,,080126,,,A*78
$GPVTG,,T,,M,0.131,N,0.242,K,A*24
$GPGGA,115119.00,1907.39389,N,07250.18370,E,1,07,2.41,17.6,M,-65.6,M,,*42
$GPGSA,A,3,06,22,19,14,20,17,21,,,,,,4.12,2.41,3.34*0A
$GPGSV,4,1,14,05,13,184,,06,53,027,29,11,77,244,,12,27,326,08*76
$GPGSV,4,2,14,13,06,197,,14,22,118,33,17,17,055,29,19,31,036,29*73
$GPGSV,4,3,14,20,39,160,35,21,29,157,34,22,38,105,36,24,41,270,*72
$GPGSV,4,4,14,42,60,135,39,50,08,095,33*70
$GPGLL,1907.39389,N,07250.18370,E,115119.00,A,A*6F
$GPRMC,115120.00,A,1907.39390,N,07250.18367,E,0.148,,080126,,,A*72
$GPVTG,,T,,M,0.148,N,0.274,K,A*2F
$GPGGA,115120.00,1907.39390,N,07250.18367,E,1,07,2.41,17.5,M,-65.6,M,,*45
$GPGSA,A,3,06,22,19,14,20,17,21,,,,,,4.12,2.41,3.35*0B
$GPGSV,4,1,14,05,13,184,,06,53,027,29,11,77,244,,12,27,327,07*78
$GPGSV,4,2,14,13,06,197,,14,22,118,33,17,17,055,29,19,31,036,30*7B
$GPGSV,4,3,14,20,39,160,35,21,29,157,34,22,38,105,36,24,41,270,*72
$GPGSV,4,4,14,42,60,135,39,50,08,095,32*71
$GPGLL,1907.39390,N,07250.18367,E,115120.00,A,A*6B
$GPRMC,115121.00,A,1907.39389,N,07250.18366,E,0.123,,080126,,,A*77
$GPVTG,,T,,M,0.123,N,0.228,K,A*2B
$GPGGA,115121.00,1907.39389,N,07250.18366,E,1,07,2.41,17.4,M,-65.6,M,,*4C
$GPGSA,A,3,06,22,19,14,20,17,21,,,,,,4.12,2.41,3.35*0B
$GPGSV,4,1,14,05,13,184,,06,53,027,30,11,77,244,,12,27,327,07*70
$GPGSV,4,2,14,13,05,197,,14,22,118,33,17,17,055,29,19,31,036,29*70
$GPGSV,4,3,14,20,39,160,34,21,29,157,34,22,38,105,35,24,41,270,*70
$GPGSV,4,4,14,42,60,135,39,50,08,095,32*71
$GPGLL,1907.39389,N,07250.18366,E,115121.00,A,A*63
$GPRMC,115122.00,A,1907.39386,N,07250.18368,E,0.080,,080126,,,A*7D
$GPVTG,,T,,M,0.080,N,0.148,K,A*26
$GPGGA,115122.00,1907.39386,N,07250.18368,E,1,07,2.41,17.4,M,-65.6,M,,*4E
$GPGSA,A,3,06,22,19,14,20,17,21,,,,,,4.13,2.41,3.35*0A
$GPGSV,4,1,14,05,13,184,,06,53,027,30,11,77,244,,12,27,327,07*70
$GPGSV,4,2,14,13,05,197,,14,22,119,32,17,17,055,29,19,31,036,30*78
$GPGSV,4,3,14,20,39,160,35,21,29,157,34,22,38,105,35,24,41,270,*71
$GPGSV,4,4,14,42,60,135,39,50,08,095,32*71
$GPGLL,1907.39386,N,07250.18368,E,115122.00,A,A*61
$GPRMC,115123.00,A,1907.39386,N,07250.18366,E,0.055,,080126,,,D*7F
$GPVTG,,T,,M,0.055,N,0.102,K,D*25
$GPGGA,115123.00,1907.39386,N,07250.18366,E,2,07,2.41,17.4,M,-65.6,M,,0000*42
$GPGSA,A,3,06,22,19,14,20,17,21,,,,,,4.13,2.41,3.35*0A
$GPGSV,4,1,14,05,13,184,,06,53,027,30,11,77,244,,12,27,327,*77
$GPGSV,4,2,14,13,05,197,,14,22,119,32,17,17,055,29,19,31,036,30*78
$GPGSV,4,3,14,20,39,160,34,21,29,157,34,22,38,105,35,24,41,270,*70
$GPGSV,4,4,14,42,60,135,39,50,08,095,32*71
$GPGLL,1907.39386,N,07250.18366,E,115123.00,A,D*6B
$GPRMC,115124.00,A,1907.39386,N,07250.18367,E,0.092,,080126,,,D*72
$GPVTG,,T,,M,0.092,N,0.171,K,D*2A
$GPGGA,115124.00,1907.39386,N,07250.18367,E,2,07,2.41,17.5,M,-65.6,M,,0000*45
$GPGSA,A,3,06,22,19,14,20,17,21,,,,,,4.13,2.41,3.35*0A
$GPGSV,4,1,14,05,13,184,,06,53,027,29,11,77,244,,12,27,327,*7F
$GPGSV,4,2,14,13,05,197,,14,22,119,32,17,17,055,29,19,31,036,29*70
$GPGSV,4,3,14,20,39,160,35,21,29,157,34,22,38,105,36,24,41,270,*72
$GPGSV,4,4,14,42,60,135,39,50,08,095,33*70
$GPGLL,1907.39386,N,07250.18367,E,115124.00,A,D*6D
$GPRMC,115125.00,A,1907.39383,N,07250.18373,E,0.078,,080126,,,D*77
$GPVTG,,T,,M,0.078,N,0.144,K,D*28
$GPGGA,115125.00,1907.39383,N,07250.18373,E,2,07,2.41,17.6,M,-65.6,M,,0000*47
$GPGSA,A,3,06,22,19,14,20,17,21,,,,,,4.13,2.41,3.35*0A
$GPGSV,4,1,14,05,13,184,,06,53,027,30,11,77,244,,12,27,327,*77
$GPGSV,4,2,14,13,05,197,,14,22,119,32,17,17,055,29,19,31,036,29*70
$GPGSV,4,3,14,20,39,160,35,21,29,157,35,22,38,105,36,24,41,270,*73
$GPGSV,4,4,14,42,60,135,39,50,08,095,33*70
$GPGLL,1907.39383,N,07250.18373,E,115125.00,A,D*6C
$GPRMC,115126.00,A,1907.39380,N,07250.18377,E,0.022,,080126,,,D*7C
$GPVTG,,T,,M,0.022,N,0.041,K,D*23
$GPGGA,115126.00,1907.39380,N,07250.18377,E,2,07,2.42,17.4,M,-65.6,M,,0000*42
$GPGSA,A,3,06,22,19,14,20,17,21,,,,,,4.13,2.42,3.35*09
$GPGSV,4,1,14,05,13,184,,06,53,027,30,11,77,244,,12,27,327,*77
$GPGSV,4,2,14,13,05,197,,14,22,119,32,17,17,055,29,19,31,036,29*70
$GPGSV,4,3,14,20,39,160,35,21,29,157,34,22,38,105,35,24,41,270,*71
$GPGSV,4,4,14,42,60,135,39,50,08,095,32*71
$GPGLL,1907.39380,N,07250.18377,E,115126.00,A,D*68
$GPRMC,115127.00,A,1907.39378,N,07250.18378,E,0.063,,080126,,,D*70
$GPVTG,,T,,M,0.063,N,0.116,K,D*25
$GPGGA,115127.00,1907.39378,N,07250.18378,E,2,07,2.42,17.4,M,-65.6,M,,0000*4B
$GPGSA,A,3,06,22,19,14,20,17,21,,,,,,4.13,2.42,3.35*09
$GPGSV,4,1,14,05,13,184,,06,53,027,29,11,77,244,,12,27,327,*7F
$GPGSV,4,2,14,13,05,197,,14,22,119,32,17,17,055,29,19,31,036,29*70
$GPGSV,4,3,14,20,39,160,35,21,29,157,34,22,38,105,36,24,41,270,*72
$GPGSV,4,4,14,42,60,135,39,50,08,095,33*70
$GPGLL,1907.39378,N,07250.18378,E,115127.00,A,D*61
$GPRMC,115128.00,A,1907.39375,N,07250.18384,E,0.031,,080126,,,D*76
$GPVTG,,T,,M,0.031,N,0.057,K,D*26
$GPGGA,115128.00,1907.39375,N,07250.18384,E,2,07,2.42,17.4,M,-65.6,M,,0000*4A
$GPGSA,A,3,06,22,19,14,20,17,21,,,,,,4.13,2.42,3.35*09
$GPGSV,4,1,14,05,13,184,,06,53,027,30,11,77,244,,12,27,327,*77
$GPGSV,4,2,14,13,05,197,,14,22,119,32,17,17,055,29,19,31,036,29*70
$GPGSV,4,3,14,20,39,160,35,21,29,157,34,22,38,105,36,24,41,270,*72
$GPGSV,4,4,14,42,60,135,39,50,08,095,33*70
$GPGLL,1907.39375,N,07250.18384,E,115128.00,A,D*60
$GPRMC,115129.00,A,1907.39374,N,07250.18386,E,0.031,,080126,,,D*74
$GPVTG,,T,,M,0.031,N,0.058,K,D*29
$GPGGA,115129.00,1907.39374,N,07250.18386,E,2,07,2.42,17.3,M,-65.6,M,,0000*4F
$GPGSA,A,3,06,22,19,14,20,17,21,,,,,,4.14,2.42,3.35*0E
$GPGSV,4,1,14,05,13,184,,06,53,027,30,11,77,244,,12,27,327,*77
$GPGSV,4,2,14,13,05,197,,14,22,119,33,17,17,055,29,19,31,036,29*71
$GPGSV,4,3,14,20,39,160,35,21,29,157,34,22,38,105,36,24,41,270,*72
$GPGSV,4,4,14,42,60,135,39,50,08,095,32*71
$GPGLL,1907.39374,N,07250.18386,E,115129.00,A,D*62
$GPRMC,115130.00,A,1907.39373,N,07250.18390,E,0.037,,080126,,,D*7A
$GPVTG,,T,,M,0.037,N,0.068,K,D*2C
$GPGGA,115130.00,1907.39373,N,07250.18390,E,2,07,2.42,17.2,M,-65.6,M,,0000*46
$GPGSA,A,3,06,22,19,14,20,17,21,,,,,,4.14,2.42,3.36*0D
$GPGSV,4,1,14,05,13,184,,06,53,027,30,11,77,244,,12,27,327,*77
$GPGSV,4,2,14,13,05,197,,14,22,119,33,17,17,055,29,19,31,036,29*71
$GPGSV,4,3,14,20,39,160,35,21,29,157,34,22,37,105,35,24,41,270,*7E
$GPGSV,4,4,14,42,60,135,39,50,08,095,32*71
$GPGLL,1907.39373,N,07250.18390,E,115130.00,A,D*6A
$GPRMC,115131.00,A,1907.39374,N,07250.18389,E,0.035,,080126,,,D*76
$GPVTG,,T,,M,0.035,N,0.065,K,D*23
$GPGGA,115131.00,1907.39374,N,07250.18389,E,2,07,2.42,17.1,M,-65.6,M,,0000*4B
$GPGSA,A,3,06,22,19,14,20,17,21,,,,,,4.14,2.42,3.36*0D
$GPGSV,4,1,14,05,13,184,,06,53,027,30,11,77,244,,12,27,327,*77
$GPGSV,4,2,14,13,05,197,,14,22,119,33,17,17,055,29,19,31,036,29*71
$GPGSV,4,3,14,20,39,160,35,21,29,157,34,22,37,105,35,24,41,270,*7E
$GPGSV,4,4,14,42,60,135,39,50,08,095,32*71
$GPGLL,1907.39374,N,07250.18389,E,115131.00,A,D*64
$GPRMC,115132.00,A,1907.39374,N,07250.18389,E,0.075,,080126,,,D*71
$GPVTG,,T,,M,0.075,N,0.140,K,D*21
$GPGGA,115132.00,1907.39374,N,07250.18389,E,2,07,2.42,17.0,M,-65.6,M,,0000*49
$GPGSA,A,3,06,22,19,14,20,17,21,,,,,,4.14,2.42,3.36*0D
$GPGSV,4,1,14,05,13,184,,06,53,027,30,11,77,244,,12,27,327,*77
$GPGSV,4,2,14,13,05,197,,14,22,119,33,17,17,055,28,19,31,036,29*70
$GPGSV,4,3,14,20,39,160,35,21,29,157,34,22,37,105,35,24,41,269,*76
$GPGSV,4,4,14,42,60,135,39,50,08,095,32*71
$GPGLL,1907.39374,N,07250.18389,E,115132.00,A,D*67
$GPRMC,115133.00,A,1907.39375,N,07250.18393,E,0.050,,080126,,,D*7D
$GPVTG,,T,,M,0.050,N,0.093,K,D*29
$GPGGA,115133.00,1907.39375,N,07250.18393,E,2,07,2.42,17.0,M,-65.6,M,,0000*42
$GPGSA,A,3,06,22,19,14,20,17,21,,,,,,4.14,2.42,3.36*0D
$GPGSV,4,1,14,05,13,184,,06,53,027,30,11,77,244,,12,27,327,*77
$GPGSV,4,2,14,13,05,197,,14,22,119,33,17,17,055,28,19,31,036,29*70
$GPGSV,4,3,14,20,39,160,35,21,29,157,34,22,37,105,36,24,41,269,*75
$GPGSV,4,4,14,42,60,135,39,50,08,095,32*71
$GPGLL,1907.39375,N,07250.18393,E,115133.00,A,D*6C
$GPRMC,115134.00,A,1907.39375,N,07250.18395,E,0.043,,080126,,,D*7E
$GPVTG,,T,,M,0.043,N,0.079,K,D*2F
$GPGGA,115134.00,1907.39375,N,07250.18395,E,2,07,2.42,16.9,M,-65.6,M,,0000*4B
$GPGSA,A,3,06,22,19,14,20,17,21,,,,,,4.14,2.42,3.36*0D
$GPGSV,4,1,14,05,13,184,,06,53,027,30,11,77,244,,12,27,327,*77
$GPGSV,4,2,14,13,05,197,,14,22,119,33,17,17,055,28,19,31,036,29*70
$GPGSV,4,3,14,20,39,160,35,21,29,157,34,22,37,105,36,24,41,269,*75
$GPGSV,4,4,14,42,60,135,39,50,08,095,32*71
$GPGLL,1907.39375,N,07250.18395,E,115134.00,A,D*6D
$GPRMC,115135.00,A,1907.39376,N,07250.18396,E,0.018,,080126,,,D*71
$GPVTG,,T,,M,0.018,N,0.032,K,D*2E
$GPGGA,115135.00,1907.39376,N,07250.18396,E,2,07,2.42,16.9,M,-65.6,M,,0000*4A
$GPGSA,A,3,06,22,19,14,20,17,21,,,,,,4.14,2.42,3.36*0D
$GPGSV,4,1,14,05,13,184,,06,53,027,31,11,77,244,04,12,27,327,*72
$GPGSV,4,2,14,13,05,197,,14,22,119,33,17,17,055,29,19,31,036,29*71
$GPGSV,4,3,14,20,39,160,35,21,29,157,34,22,37,105,35,24,41,269,*76
$GPGSV,4,4,14,42,60,135,39,50,08,095,32*71
$GPGLL,1907.39376,N,07250.18396,E,115135.00,A,D*6C
$GPRMC,115136.00,A,1907.39376,N,07250.18397,E,0.037,,080126,,,D*7E
$GPVTG,,T,,M,0.037,N,0.068,K,D*2C
$GPGGA,115136.00,1907.39376,N,07250.18397,E,2,07,2.42,16.8,M,-65.6,M,,0000*49
$GPGSA,A,3,06,22,19,14,20,17,21,,,,,,4.14,2.42,3.36*0D
$GPGSV,4,1,14,05,13,184,,06,53,027,30,11,77,244,07,12,27,327,*70
$GPGSV,4,2,14,13,05,197,,14,22,119,33,17,17,055,29,19,31,036,29*71
$GPGSV,4,3,14,20,39,160,35,21,29,157,34,22,37,105,35,24,41,269,*76
$GPGSV,4,4,14,42,60,135,39,50,08,095,32*71
$GPGLL,1907.39376,N,07250.18397,E,115136.00,A,D*6E
$GPRMC,115137.00,A,1907.39378,N,07250.18398,E,0.043,,080126,,,D*7D
$GPVTG,,T,,M,0.043,N,0.079,K,D*2F
$GPGGA,115137.00,1907.39378,N,07250.18398,E,2,08,2.42,16.8,M,-65.6,M,,0000*46
$GPGSA,A,3,11,06,22,19,14,20,17,21,,,,,4.15,2.42,3.36*0C
$GPGSV,4,1,14,05,13,184,,06,53,027,30,11,77,244,12,12,27,327,*74
$GPGSV,4,2,14,13,05,197,,14,22,119,34,17,17,055,29,19,31,036,29*76
$GPGSV,4,3,14,20,39,160,35,21,29,157,34,22,37,105,36,24,41,269,*75
$GPGSV,4,4,14,42,60,135,39,50,08,095,32*71
$GPGLL,1907.39378,N,07250.18398,E,115137.00,A,D*6E
$GPRMC,115138.00,A,1907.39381,N,07250.18397,E,0.080,,080126,,,D*74
$GPVTG,,T,,M,0.080,N,0.149,K,D*22
$GPGGA,115138.00,1907.39381,N,07250.18397,E,2,08,2.43,16.7,M,-65.6,M,,0000*4E
$GPGSA,A,3,11,06,22,19,14,20,17,21,,,,,4.15,2.43,3.36*0D
$GPGSV,4,1,14,05,13,184,,06,53,027,30,11,77,244,15,12,27,327,*73
$GPGSV,4,2,14,13,05,197,,14,22,119,34,17,17,055,29,19,31,036,29*76
$GPGSV,4,3,14,20,39,160,35,21,29,157,34,22,37,105,36,24,41,269,*75
$GPGSV,4,4,14,42,60,135,39,50,08,095,32*71
$GPGLL,1907.39381,N,07250.18397,E,115138.00,A,D*68
$GPRMC,115139.00,A,1907.39383,N,07250.18389,E,0.092,,080126,,,D*7B
$GPVTG,,T,,M,0.092,N,0.171,K,D*2A
$GPGGA,115139.00,1907.39383,N,07250.18389,E,2,08,2.23,16.7,M,-65.6,M,,0000*44
$GPGSA,A,3,11,06,22,19,14,20,17,21,,,,,4.00,2.23,3.32*0B
$GPGSV,4,1,14,05,13,184,,06,53,027,30,11,77,244,16,12,27,327,*70
$GPGSV,4,2,14,13,05,197,,14,22,119,34,17,17,055,29,19,31,036,29*76
$GPGSV,4,3,14,20,39,160,35,21,29,157,34,22,37,105,36,24,41,269,*75
$GPGSV,4,4,14,42,60,135,39,50,08,095,32*71
$GPGLL,1907.39383,N,07250.18389,E,115139.00,A,D*64
$GPRMC,115140.00,A,1907.39385,N,07250.18388,E,0.086,,080126,,,D*77
$GPVTG,,T,,M,0.086,N,0.159,K,D*25
$GPGGA,115140.00,1907.39385,N,07250.18388,E,2,08,2.23,16.6,M,-65.6,M,,0000*4C
$GPGSA,A,3,11,06,22,19,14,20,17,21,,,,,4.00,2.23,3.32*0B
$GPGSV,4,1,14,05,13,184,,06,53,027,30,11,77,244,16,12,27,327,*70
$GPGSV,4,2,14,13,05,197,,14,22,119,34,17,17,055,29,19,31,036,29*76
$GPGSV,4,3,14,20,39,160,35,21,29,157,34,22,37,105,36,24,41,269,*75
$GPGSV,4,4,14,42,60,135,39,50,08,095,32*71
$GPGLL,1907.39385,N,07250.18388,E,115140.00,A,D*6D
$GPRMC,115141.00,A,1907.39387,N,07250.18386,E,0.017,,080126,,,D*72
$GPVTG,,T,,M,0.017,N,0.032,K,D*21
$GPGGA,115141.00,1907.39387,N,07250.18386,E,2,08,2.23,16.5,M,-65.6,M,,0000*42
$GPGSA,A,3,11,06,22,19,14,20,17,21,,,,,4.00,2.23,3.32*0B
$GPGSV,4,1,14,05,13,184,,06,53,027,30,11,77,244,15,12,27,327,*73
$GPGSV,4,2,14,13,05,197,,14,22,119,34,17,17,055,29,19,31,036,29*76
$GPGSV,4,3,14,20,39,160,35,21,29,157,34,22,37,105,36,24,41,269,*75
$GPGSV,4,4,14,42,60,135,39,50,26,103,32*73
$GPGLL,1907.39387,N,07250.18386,E,115141.00,A,D*60
$GPRMC,115142.00,A,1907.39389,N,07250.18383,E,0.048,,080126,,,D*70
$GPVTG,,T,,M,0.048,N,0.089,K,D*2B
$GPGGA,115142.00,1907.39389,N,07250.18383,E,2,08,2.23,16.4,M,-65.6,M,,0000*4B
$GPGSA,A,3,11,06,22,19,14,20,17,21,,,,,4.00,2.23,3.32*0B
$GPGSV,4,1,14,05,13,184,,06,53,027,31,11,77,244,15,12,27,327,*72
$GPGSV,4,2,14,13,05,197,,14,22,119,34,17,17,055,29,19,31,036,29*76
$GPGSV,4,3,14,20,39,160,36,21,29,157,34,22,37,105,36,24,41,269,*76
$GPGSV,4,4,14,42,60,135,39,50,26,103,32*73
$GPGLL,1907.39389,N,07250.18383,E,115142.00,A,D*68
$GPRMC,115143.00,A,1907.39390,N,07250.18381,E,0.019,,080126,,,D*7F
$GPVTG,,T,,M,0.019,N,0.036,K,D*2B
$GPGGA,115143.00,1907.39390,N,07250.18381,E,2,08,2.23,16.5,M,-65.6,M,,0000*41
$GPGSA,A,3,11,06,22,19,14,20,17,21,,,,,4.00,2.23,3.32*0B
$GPGSV,4,1,14,05,13,184,,06,53,027,30,11,77,244,16,12,27,327,*70
$GPGSV,4,2,14,13,05,197,,14,22,119,34,17,17,055,29,19,31,036,29*76
$GPGSV,4,3,14,20,39,160,36,21,29,157,34,22,37,105,36,24,41,269,*76
$GPGSV,4,4,14,42,60,135,39,50,26,103,32*73
$GPGLL,1907.39390,N,07250.18381,E,115143.00,A,D*63
$GPRMC,115144.00,A,1907.39392,N,07250.18377,E,0.143,,080126,,,D*7D
$GPVTG,,T,,M,0.143,N,0.264,K,D*20
$GPGGA,115144.00,1907.39392,N,07250.18377,E,2,08,2.23,16.3,M,-65.6,M,,0000*4B
$GPGSA,A,3,11,06,22,19,14,20,17,21,,,,,4.00,2.23,3.32*0B
$GPGSV,4,1,14,05,13,184,,06,53,027,30,11,77,244,15,12,27,327,*73
$GPGSV,4,2,14,13,05,197,,14,22,119,34,17,17,055,29,19,31,036,30*7E
$GPGSV,4,3,14,20,39,160,36,21,29,157,34,22,37,105,36,24,41,269,*76
$GPGSV,4,4,14,42,60,135,39,50,26,103,32*73
$GPGLL,1907.39392,N,07250.18377,E,115144.00,A,D*6F
$GPRMC,115145.00,A,1907.39392,N,07250.18380,E,0.175,,080126,,,D*71
$GPVTG,,T,,M,0.175,N,0.324,K,D*20
$GPGGA,115145.00,1907.39392,N,07250.18380,E,2,08,2.23,16.2,M,-65.6,M,,0000*43
$GPGSA,A,3,11,06,22,19,14,20,17,21,,,,,4.00,2.23,3.32*0B
$GPGSV,4,1,14,05,13,184,,06,53,027,30,11,77,244,15,12,27,327,*73
$GPGSV,4,2,14,13,05,197,,14,22,119,34,17,17,055,29,19,31,036,30*7E
$GPGSV,4,3,14,20,39,160,35,21,29,157,34,22,37,105,35,24,41,269,*76
$GPGSV,4,4,14,42,60,135,39,50,26,103,32*73
$GPGLL,1907.39392,N,07250.18380,E,115145.00,A,D*66
$GPRMC,115146.00,A,1907.39393,N,07250.18383,E,0.088,,080126,,,D*73
$GPVTG,,T,,M,0.088,N,0.162,K,D*23
$GPGGA,115146.00,1907.39393,N,07250.18383,E,2,08,2.24,16.1,M,-65.6,M,,0000*46
$GPGSA,A,3,11,06,22,19,14,20,17,21,,,,,4.01,2.24,3.32*0D
$GPGSV,4,1,14,05,13,184,,06,53,027,30,11,77,244,13,12,27,327,*75
$GPGSV,4,2,14,13,05,197,,14,22,119,34,17,17,055,29,19,31,036,30*7E
$GPGSV,4,3,14,20,39,160,35,21,29,157,34,22,37,105,36,24,41,269,*75
$GPGSV,4,4,14,42,60,135,39,50,26,103,32*73
$GPGLL,1907.39393,N,07250.18383,E,115146.00,A,D*67
$GPRMC,115147.00,A,1907.39393,N,07250.18387,E,0.094,,080126,,,D*7B
$GPVTG,,T,,M,0.094,N,0.175,K,D*28
$GPGGA,115147.00,1907.39393,N,07250.18387,E,2,08,2.24,16.0,M,-65.6,M,,0000*42
$GPGSA,A,3,11,06,22,19,14,20,17,21,,,,,4.01,2.24,3.33*0C
$GPGSV,4,1,14,05,13,184,,06,53,027,30,11,77,244,14,12,27,327,*72
$GPGSV,4,2,14,13,05,197,,14,22,119,34,17,17,055,30,19,31,036,30*76
$GPGSV,4,3,14,20,39,160,36,21,29,157,34,22,37,105,36,24,41,269,*76
$GPGSV,4,4,14,42,60,135,39,50,26,103,32*73
$GPGLL,1907.39393,N,07250.18387,E,115147.00,A,D*62
$GPRMC,115148.00,A,1907.39391,N,07250.18393,E,0.119,,080126,,,D*77
$GPVTG,,T,,M,0.119,N,0.220,K,D*2F
$GPGGA,115148.00,1907.39391,N,07250.18393,E,2,08,2.24,16.0,M,-65.6,M,,0000*4A
$GPGSA,A,3,11,06,22,19,14,20,17,21,,,,,4.01,2.24,3.33*0C
$GPGSV,4,1,14,05,13,184,,06,53,027,30,11,77,244,14,12,27,327,*72
$GPGSV,4,2,14,13,05,197,,14,22,119,33,17,17,055,30,19,31,036,30*71
$GPGSV,4,3,14,20,39,160,36,21,29,157,34,22,37,105,35,24,41,269,*75
$GPGSV,4,4,14,42,60,135,39,50,26,103,32*73
$GPGLL,1907.39391,N,07250.18393,E,115148.00,A,D*6A
$GPRMC,115149.00,A,1907.39390,N,07250.18396,E,0.023,,080126,,,D*7A
$GPVTG,,T,,M,0.023,N,0.042,K,D*21
$GPGGA,115149.00,1907.39390,N,07250.18396,E,2,08,2.24,16.0,M,-65.6,M,,0000*4F
$GPGSA,A,3,11,06,22,19,14,20,17,21,,,,,4.01,2.24,3.33*0C
$GPGSV,4,1,14,05,13,184,,06,53,027,30,11,77,244,15,12,27,327,*73
$GPGSV,4,2,14,13,05,197,,14,22,119,33,17,17,055,30,19,31,036,30*71
$GPGSV,4,3,14,20,39,160,36,21,29,157,34,22,37,105,36,24,41,269,*76
$GPGSV,4,4,14,42,60,135,39,50,26,103,32*73
$GPGLL,1907.39390,N,07250.18396,E,115149.00,A,D*6F
$GPRMC,115150.00,A,1907.39389,N,07250.18401,E,0.028,,080126,,,D*78
$GPVTG,,T,,M,0.028,N,0.052,K,D*2B
$GPGGA,115150.00,1907.39389,N,07250.18401,E,2,08,2.24,15.9,M,-65.6,M,,0000*4C
$GPGSA,A,3,11,06,22,19,14,20,17,21,,,,,4.01,2.24,3.33*0C
$GPGSV,4,1,14,05,13,184,,06,53,027,30,11,77,244,16,12,27,327,*70
$GPGSV,4,2,14,13,05,197,,14,22,119,33,17,17,055,30,19,31,036,30*71
$GPGSV,4,3,14,20,39,160,36,21,29,157,34,22,37,105,35,24,41,269,*75
$GPGSV,4,4,14,42,60,135,39,50,26,103,32*73
$GPGLL,1907.39389,N,07250.18401,E,115150.00,A,D*66
$GPRMC,115151.00,A,1907.39387,N,07250.18409,E,0.018,,080126,,,D*7C
$GPVTG,,T,,M,0.018,N,0.034,K,D*28
$GPGGA,115151.00,1907.39387,N,07250.18409,E,2,08,2.24,15.9,M,-65.6,M,,0000*4B
$GPGSA,A,3,11,06,22,19,14,20,17,21,,,,,4.01,2.24,3.33*0C
$GPGSV,4,1,14,05,13,184,,06,53,027,30,11,77,244,17,12,27,327,*71
$GPGSV,4,2,14,13,05,197,,14,22,119,34,17,17,055,30,19,31,036,29*7E
$GPGSV,4,3,14,20,39,160,36,21,29,157,34,22,37,105,35,24,41,269,*75
$GPGSV,4,4,14,42,60,135,39,50,26,103,32*73
$GPGLL,1907.39387,N,07250.18409,E,115151.00,A,D*61
$GPRMC,115152.00,A,1907.39384,N,07250.18417,E,0.042,,080126,,,D*7C
$GPVTG,,T,,M,0.042,N,0.077,K,D*20
$GPGGA,115152.00,1907.39384,N,07250.18417,E,2,08,2.24,15.8,M,-65.6,M,,0000*45
$GPGSA,A,3,11,06,22,19,14,20,17,21,,,,,4.01,2.24,3.33*0C
$GPGSV,4,1,14,05,13,184,,06,53,027,30,11,77,244,18,12,27,327,*7E
$GPGSV,4,2,14,13,05,197,,14,22,119,33,17,17,055,29,19,31,036,29*71
$GPGSV,4,3,14,20,39,160,36,21,29,157,34,22,37,105,36,24,41,269,*76
$GPGSV,4,4,14,42,60,135,39,50,26,103,32*73
$GPGLL,1907.39384,N,07250.18417,E,115152.00,A,D*6E
$GPRMC,115153.00,A,1907.39385,N,07250.18417,E,0.060,,080126,,,D*7C
$GPVTG,,T,,M,0.060,N,0.111,K,D*21
$GPGGA,115153.00,1907.39385,N,07250.18417,E,2,08,2.24,15.7,M,-65.6,M,,0000*4A
$GPGSA,A,3,11,06,22,19,14,20,17,21,,,,,4.02,2.24,3.33*0F
$GPGSV,4,1,14,05,13,184,,06,53,027,30,11,77,244,18,12,27,327,*7E
$GPGSV,4,2,14,13,05,197,,14,22,119,33,17,17,055,29,19,31,036,30*79
$GPGSV,4,3,14,20,39,160,36,21,29,157,34,22,37,105,35,24,41,269,*75
$GPGSV,4,4,14,42,60,135,39,50,26,103,32*73
$GPGLL,1907.39385,N,07250.18417,E,115153.00,A,D*6E
$GPRMC,115154.00,A,1907.39385,N,07250.18424,E,0.065,,080126,,,D*7E
$GPVTG,,T,,M,0.065,N,0.121,K,D*27
$GPGGA,115154.00,1907.39385,N,07250.18424,E,2,08,2.24,15.4,M,-65.6,M,,0000*4E
$GPGSA,A,3,11,06,22,19,14,20,17,21,,,,,4.02,2.24,3.33*0F
$GPGSV,4,1,14,05,13,184,,06,53,027,30,11,77,244,17,12,27,327,*71
$GPGSV,4,2,14,13,05,197,,14,22,119,33,17,17,055,29,19,31,036,30*79
$GPGSV,4,3,14,20,39,160,36,21,29,157,34,22,37,105,36,24,41,269,*76
$GPGSV,4,4,14,42,60,135,39,50,26,103,32*73
$GPGLL,1907.39385,N,07250.18424,E,115154.00,A,D*69
$GPRMC,115155.00,A,1907.39383,N,07250.18436,E,0.174,,080126,,,D*7B
$GPVTG,,T,,M,0.174,N,0.322,K,D*27
$GPGGA,115155.00,1907.39383,N,07250.18436,E,2,08,2.24,15.3,M,-65.6,M,,0000*4D
$GPGSA,A,3,11,06,22,19,14,20,17,21,,,,,4.02,2.24,3.34*08
$GPGSV,4,1,14,05,13,184,,06,53,027,30,11,77,244,15,12,27,327,*73
$GPGSV,4,2,14,13,05,197,,14,22,119,32,17,17,055,29,19,31,036,30*78
$GPGSV,4,3,14,20,39,160,36,21,29,157,33,22,37,105,36,24,41,269,*71
$GPGSV,4,4,14,42,60,135,39,50,26,103,32*73
$GPGLL,1907.39383,N,07250.18436,E,115155.00,A,D*6D
$GPRMC,115156.00,A,1907.39384,N,07250.18438,E,0.044,,080126,,,D*73
$GPVTG,,T,,M,0.044,N,0.082,K,D*2C
$GPGGA,115156.00,1907.39384,N,07250.18438,E,2,08,2.44,15.3,M,-65.6,M,,0000*41
$GPGSA,A,3,11,06,22,19,14,20,17,21,,,,,4.17,2.44,3.38*06
$GPGSV,4,1,14,05,13,184,,06,53,027,29,11,77,244,12,12,27,327,*7C
$GPGSV,4,2,14,13,05,197,,14,22,119,33,17,17,055,29,19,31,036,31*78
$GPGSV,4,3,14,20,39,160,36,21,29,157,33,22,37,105,36,24,41,269,*71
$GPGSV,4,4,14,42,60,135,39,50,26,103,32*73
$GPGLL,1907.39384,N,07250.18438,E,115156.00,A,D*67
$GPRMC,115157.00,A,1907.39383,N,07250.18444,E,0.116,,080126,,,D*78
$GPVTG,,T,,M,0.116,N,0.215,K,D*26
$GPGGA,115157.00,1907.39383,N,07250.18444,E,2,08,2.44,15.4,M,-65.6,M,,0000*4B
$GPGSA,A,3,11,06,22,19,14,20,17,21,,,,,4.17,2.44,3.38*06
$GPGSV,4,1,14,05,13,184,,06,53,027,30,11,77,244,11,12,27,327,*77
$GPGSV,4,2,14,13,05,197,,14,22,119,33,17,17,055,29,19,31,036,31*78
$GPGSV,4,3,14,20,39,160,36,21,29,157,33,22,37,105,36,24,41,269,*71
$GPGSV,4,4,14,42,60,135,39,50,26,103,33*72
$GPGLL,1907.39383,N,07250.18444,E,115157.00,A,D*6A
$GPRMC,115158.00,A,1907.39384,N,07250.18445,E,0.065,,080126,,,D*74
$GPVTG,,T,,M,0.065,N,0.121,K,D*27
$GPGGA,115158.00,1907.39384,N,07250.18445,E,2,08,2.44,15.5,M,-65.6,M,,0000*43
$GPGSA,A,3,11,06,22,19,14,20,17,21,,,,,4.18,2.44,3.39*08
$GPGSV,4,1,14,05,13,184,,06,53,027,30,11,77,244,11,12,27,327,*77
$GPGSV,4,2,14,13,05,197,,14,22,119,34,17,17,055,29,19,31,036,31*7F
$GPGSV,4,3,14,20,39,160,36,21,29,157,34,22,37,105,35,24,41,269,*75
$GPGSV,4,4,14,42,60,135,39,50,26,103,32*73
$GPGLL,1907.39384,N,07250.18445,E,115158.00,A,D*63
$GPRMC,115159.00,A,1907.39384,N,07250.18450,E,0.051,,080126,,,D*76
$GPVTG,,T,,M,0.051,N,0.095,K,D*2E
$GPGGA,115159.00,1907.39384,N,07250.18450,E,2,08,2.44,15.6,M,-65.6,M,,0000*45
$GPGSA,A,3,11,06,22,19,14,20,17,21,,,,,4.18,2.44,3.39*08
$GPGSV,4,1,14,05,13,184,,06,53,027,30,11,77,244,11,12,27,327,*77
$GPGSV,4,2,14,13,05,197,,14,22,119,34,17,17,055,29,19,31,036,31*7F
$GPGSV,4,3,14,20,39,160,36,21,29,157,34,22,37,105,35,24,41,269,*75
$GPGSV,4,4,14,42,60,135,39,50,26,103,32*73
$GPGLL,1907.39384,N,07250.18450,E,115159.00,A,D*66
$GPRMC,115200.00,A,1907.39382,N,07250.18458,E,0.090,,080126,,,D*7A
$GPVTG,,T,,M,0.090,N,0.166,K,D*2E
$GPGGA,115200.00,1907.39382,N,07250.18458,E,2,08,2.45,15.8,M,-65.6,M,,0000*4B
$GPGSA,A,3,11,06,22,19,14,20,17,21,,,,,4.18,2.45,3.39*09
$GPGSV,4,1,14,05,13,184,,06,53,027,30,11,77,244,11,12,27,327,*77
$GPGSV,4,2,14,13,05,197,,14,22,119,34,17,17,055,29,19,31,036,30*7E
$GPGSV,4,3,14,20,39,160,36,21,29,157,33,22,37,105,36,24,41,269,*71
$GPGSV,4,4,14,42,60,135,39,50,26,103,32*73
$GPGLL,1907.39382,N,07250.18458,E,115200.00,A,D*67
$GPRMC,115201.00,A,1907.39382,N,07250.18463,E,0.058,,080126,,,D*77
$GPVTG,,T,,M,0.058,N,0.107,K,D*2D
$GPGGA,115201.00,1907.39382,N,07250.18463,E,2,08,2.45,16.0,M,-65.6,M,,0000*49
$GPGSA,A,3,11,06,22,19,14,20,17,21,,,,,4.18,2.45,3.39*09
$GPGSV,4,1,14,05,13,184,,06,53,027,30,11,77,244,11,12,27,327,*77
$GPGSV,4,2,14,13,05,197,,14,22,119,33,17,17,055,29,19,31,036,30*79
$GPGSV,4,3,14,20,39,160,36,21,29,157,34,22,37,105,36,24,41,269,*76
$GPGSV,4,4,14,42,60,135,39,50,26,103,33*72
$GPGLL,1907.39382,N,07250.18463,E,115201.00,A,D*6E
$GPRMC,115202.00,A,1907.39382,N,07250.18465,E,0.015,,080126,,,D*7B
$GPVTG,,T,,M,0.015,N,0.027,K,D*27
$GPGGA,115202.00,1907.39382,N,07250.18465,E,2,08,2.45,16.1,M,-65.6,M,,0000*4D
$GPGSA,A,3,11,06,22,19,14,20,17,21,,,,,4.18,2.45,3.39*09
$GPGSV,4,1,14,05,13,184,,06,53,027,30,11,77,244,09,12,27,327,*7E
$GPGSV,4,2,14,13,05,197,,14,22,119,34,17,17,055,29,19,31,036,30*7E
$GPGSV,4,3,14,20,39,160,36,21,29,157,34,22,37,105,36,24,41,269,*76
$GPGSV,4,4,14,42,60,135,39,50,26,103,33*72
$GPGLL,1907.39382,N,07250.18465,E,115202.00,A,D*6B
